[{"investments": 0, "address": "60B ORCHARD ROAD #06-18 THE ATRIUM @ ORCHARD SINGAPORE 238891", "rounds": 0, "location": {"latitude": 1.29976, "longitude": 103.8455131}, "name": "MacRitchie Investments Pte Ltd"}, {"investments": 0, "address": "C/O PARKWOOD LLC", "rounds": 0, "location": {"latitude": 41.5057651, "longitude": -81.6903669}, "name": "Foundation Investments of Ohio Ltd"}, {"investments": 0, "address": "3208/2", "rounds": 0, "location": {"latitude": 28.685121, "longitude": 77.1347868}, "name": "Outbox Ventures Private Limited"}, {"investments": 0, "address": "B-402 ", "rounds": 0, "location": {"latitude": 19.1782368, "longitude": 72.8340245}, "name": " Ah Ventures India Private Limited"}, {"investments": 0, "address": "160-A SAINIK FARMS KHANPUR NEW DELHI DL 110062 IN", "rounds": 0, "location": {"latitude": 28.5017294, "longitude": 77.2093493}, "name": " Futuresoft (india) Private Limited"}, {"investments": 0, "address": "5A/1.TAKSHILA APPARTMENTS", "rounds": 0, "location": {"latitude": 19.1301719, "longitude": 72.86840649999999}, "name": " Quidich Innovation Labs Private Limited"}, {"investments": 0, "address": "13TH FLOOR", "rounds": 0, "location": {"latitude": -20.2424442, "longitude": 57.4884947}, "name": " Bravia Rent Alpha Holdings Limited"}, {"investments": 0, "address": "C/o Parkwood LLC", "rounds": 0, "location": {"latitude": 41.5057651, "longitude": -81.6903669}, "name": " Manbro P.E. IV LP"}, {"investments": 0, "address": "15-D", "rounds": 0, "location": {"latitude": 28.5578463, "longitude": 77.1644245}, "name": " Waterbridge Ventures I"}, {"investments": 0, "address": "244", "rounds": 0, "location": {"latitude": 12.9124507, "longitude": 77.6343342}, "name": " Tsepak Technologies Private Limited."}, {"investments": 0, "address": "LA CHAUSSEE STREET", "rounds": 0, "location": {"latitude": -20.1636209, "longitude": 57.5014035}, "name": " Unitus Seed Mauritius"}, {"investments": 0, "address": "7TH FLOOR", "rounds": 0, "location": {"latitude": 28.528602, "longitude": 77.219256}, "name": " Select Unicorn Llp"}, {"investments": 0, "address": "NO 48", "rounds": 0, "location": {"latitude": 12.9373626, "longitude": 77.57180939999999}, "name": " Emvito Technologies Private Limited"}, {"investments": 0, "address": "Plot No.90 Sector - 44 Gurgaon Gurgaon HR 122002 IN", "rounds": 0, "location": {"latitude": 28.448479, "longitude": 77.0758733}, "name": " Trucksfirst Services Private Limited"}, {"investments": 0, "address": "D-119", "rounds": 0, "location": {"latitude": 28.5583723, "longitude": 77.2387782}, "name": " Smile Multimedia Private Limited"}, {"investments": 0, "address": "401 RYLAND ST STE 200-A", "rounds": 0, "location": {"latitude": 39.5240257, "longitude": -119.806015}, "name": " DriveU Investment Funds LLC"}, {"investments": 0, "address": "NO 805", "rounds": 0, "location": {"latitude": 12.9711618, "longitude": 77.64328549999999}, "name": " Pratithi Investment Trust"}, {"investments": 0, "address": "4th Floor", "rounds": 0, "location": {"latitude": 18.5156714, "longitude": 73.92634009999999}, "name": " Clarion Technologies Private Limited"}, {"investments": 0, "address": "4th Floor", "rounds": 0, "location": {"latitude": -20.243199, "longitude": 57.496375}, "name": " Saama Capital Iii"}, {"investments": 0, "address": "U8", "rounds": 0, "location": {"latitude": 28.561802, "longitude": 77.192962}, "name": " Crudearea Web Private Limited"}, {"investments": 0, "address": "3/16", "rounds": 0, "location": {"latitude": 28.5779173, "longitude": 77.16936609999999}, "name": " Calabasas Ventures Private Limited"}, {"investments": 0, "address": "4th Floor", "rounds": 0, "location": {"latitude": 18.9986521, "longitude": 72.8246439}, "name": " Alpex Corporate Services And Merchandising Private Limited"}, {"investments": 0, "address": "PLOT NO 4 LUCKY INDUSTRIALESTATE UDYOG NAGAR GOREGOAN MUMBAI MH 400062 IN", "rounds": 0, "location": {"latitude": 19.1540536, "longitude": 72.8517076}, "name": " Project Automobiles (bombay) Private Limited"}, {"investments": 0, "address": "#9/3", "rounds": 0, "location": {"latitude": 12.9656906, "longitude": 77.6018338}, "name": " Unitus Seed Advisors Private Limited"}, {"investments": 0, "address": "G - Z ARIHANT BLDGAHMEDABAD STREET MASJID (EAST)", "rounds": 0, "location": {"latitude": 18.9509621, "longitude": 72.83993939999999}, "name": " Bhoruka Capital Limited"}, {"investments": 0, "address": "138 Market Street", "rounds": 0, "location": {"latitude": 1.2818847, "longitude": 103.8503034}, "name": " Sistema Asia Fund Pte Ltd"}, {"investments": 0, "address": "10 Anson Road ", "rounds": 0, "location": {"latitude": 1.2756998, "longitude": 103.8458098}, "name": " ConveGenius Global Solutions Pte Ltd"}, {"investments": 0, "address": "3786 Grove Avenue", "rounds": 0, "location": {"latitude": 37.4236905, "longitude": -122.1120311}, "name": " Saama Capital Us Advisors"}, {"investments": 0, "address": "51-57", "rounds": 0, "location": {"latitude": 18.9248887, "longitude": 72.82316039999999}, "name": " Nazara Technologies Private Limited"}, {"investments": 0, "address": "OPP HERO SHOWROOM", "rounds": 0, "location": {"latitude": 28.1966596, "longitude": 76.62364409999999}, "name": " Dinco Overseas"}, {"investments": 0, "address": "SURAJ PRAKASH BLDG86 SHANKAR GHANEKAR MARG PRABHADEVI MUMBAI MH 400025 IN", "rounds": 0, "location": {"latitude": 19.0146316, "longitude": 72.8307076}, "name": " Mohan Three Wheelers Private Limited"}, {"investments": 0, "address": "10 STEVIE COURT", "rounds": 0, "location": {"latitude": 37.5142654, "longitude": -121.920225}, "name": " The Hedge Family Revocable Trust"}, {"investments": 0, "address": "42", "rounds": 0, "location": {"latitude": 19.1386684, "longitude": 72.8668471}, "name": " India Quotient Investment Trust"}, {"investments": 0, "address": "No 28", "rounds": 0, "location": {"latitude": 12.9961833, "longitude": 77.55147}, "name": " Bro4U Online Services Private Limited"}, {"investments": 0, "address": "C 3-B PLOT NO. 49 SUNCITY SECTOR 54 GURGAON Gurgaon HR 122104 IN", "rounds": 0, "location": {"latitude": 28.4367159, "longitude": 77.108187}, "name": " Mconverge Ventures Llp"}, {"investments": 0, "address": "B-6/17", "rounds": 0, "location": {"latitude": 28.5597367, "longitude": 77.19900919999999}, "name": " Spank Management Services Private Limited"}, {"investments": 0, "address": "NO.20", "rounds": 0, "location": {"latitude": 13.0088794, "longitude": 77.5636371}, "name": " TRIPOD SOFTWARE SOLUTIONS PRIVATE LIMITED"}, {"investments": 0, "address": "No. 004", "rounds": 0, "location": {"latitude": 12.8882473, "longitude": 77.5915824}, "name": "KITCHNZA FOODS AND HOSPITALITY PRIVATE LIMITED"}, {"investments": 0, "address": "D-25/C1", "rounds": 0, "location": {"latitude": 28.567197, "longitude": 77.21610000000001}, "name": "Medhavi Professional Services Private Limited"}, {"investments": 0, "address": "C 3/35", "rounds": 0, "location": {"latitude": 28.729375, "longitude": 77.129114}, "name": "Rp2 Ventures Private Limited"}, {"investments": 0, "address": "PLOT NO.26", "rounds": 0, "location": {"latitude": 17.424497, "longitude": 78.451038}, "name": "Venkart Ecom Private Limited"}, {"investments": 0, "address": "#X902", "rounds": 0, "location": {"latitude": 12.9203309, "longitude": 77.68848179999999}, "name": "RETISENSE TECH INDIA PRIVATE LIMITED"}, {"investments": 0, "address": "C/O OCRA Limited level 2", "rounds": 0, "location": {"latitude": -20.161876, "longitude": 57.50574899999999}, "name": "Better World Technology Holdings"}, {"investments": 0, "address": "LAXMI 8-2-682", "rounds": 0, "location": {"latitude": 17.4076136, "longitude": 78.4402233}, "name": "Gar Financial Services Private Limited"}, {"investments": 0, "address": "E-98", "rounds": 0, "location": {"latitude": 28.5415675, "longitude": 77.239773}, "name": "Kulzy Media Private Limited"}, {"investments": 0, "address": "473/1", "rounds": 0, "location": {"latitude": 12.978889, "longitude": 77.6421699}, "name": "Xysec Labs Private Limited"}, {"investments": 0, "address": "NO. 92", "rounds": 0, "location": {"latitude": 13.0558488, "longitude": 80.1151199}, "name": "EVEGETAILING PRIVATE LIMITED"}, {"investments": 0, "address": "B-9 and 10", "rounds": 0, "location": {"latitude": 28.446088, "longitude": 77.043976}, "name": "NUVO LOGISTICS PRIVATE LIMITED"}, {"investments": 0, "address": "702", "rounds": 0, "location": {"latitude": 19.1243882, "longitude": 72.8495982}, "name": "NEEV KNOWLEDGE MANAGEMENT PRIVATE LIMITED"}, {"investments": 0, "address": "IFS COURT TWENTYEIGHT", "rounds": 0, "location": {"latitude": -20.242499, "longitude": 57.49564899999999}, "name": "Canaan VIII Mauritius"}, {"investments": 0, "address": "AG-I/57B", "rounds": 0, "location": {"latitude": 28.627054, "longitude": 77.066531}, "name": "Sai Webtel Technologies Private Limited"}, {"investments": 0, "address": "C/O INTERNATIONAL FINANCIAL SERVICES LIMITED", "rounds": 0, "location": {"latitude": -20.242499, "longitude": 57.49564899999999}, "name": "Epiphany Overseas Ventures"}, {"investments": 0, "address": "10A", "rounds": 0, "location": {"latitude": 28.5137542, "longitude": 77.158717}, "name": "Plus Capital Advisors Private Limited"}, {"investments": 0, "address": "209", "rounds": 0, "location": {"latitude": 28.6342746, "longitude": 77.3024215}, "name": "Healthstart India Private Limited"}, {"investments": 0, "address": "58", "rounds": 0, "location": {"latitude": 11.9346773, "longitude": 79.8315755}, "name": "Marcatus Qed (india) Private Limited"}, {"investments": 0, "address": "B-19 DEFENCE COLONY NEW DELHI DL 110024 IN", "rounds": 0, "location": {"latitude": 28.6696426, "longitude": 77.1439042}, "name": "Yukti Securities Private Limited"}, {"investments": 0, "address": "E 215", "rounds": 0, "location": {"latitude": 28.5867954, "longitude": 77.336449}, "name": "QUSTN TECHNOLOGIES PRIVATE LIMITED"}, {"investments": 0, "address": "A/406", "rounds": 0, "location": {"latitude": 19.146071, "longitude": 72.83593499999999}, "name": "Wsg Entertainment Llp"}, {"investments": 0, "address": "402", "rounds": 0, "location": {"latitude": 23.0474959, "longitude": 72.5276844}, "name": "INTERACTCRM SOLUTIONS PRIVATE LIMITED"}, {"investments": 0, "address": "17/21", "rounds": 0, "location": {"latitude": 12.9671505, "longitude": 77.60791189999999}, "name": "Relobridge Relocations Private Limited"}, {"investments": 0, "address": "D2", "rounds": 0, "location": {"latitude": 9.946067, "longitude": 76.3459058}, "name": "Konglo Ventures LLP"}, {"investments": 0, "address": "Prins", "rounds": 0, "location": {"latitude": 52.3477377, "longitude": 4.9205219}, "name": "Groupon Holdings B V"}, {"investments": 0, "address": "FLAT NO. 62D", "rounds": 0, "location": {"latitude": 28.7048867, "longitude": 77.1543404}, "name": "Orangut Labs Private Limited"}, {"investments": 0, "address": "600 W", "rounds": 0, "location": {"latitude": 41.8975185, "longitude": -87.64397799999999}, "name": " Groupon Inc."}, {"investments": 0, "address": "S-399 GREATER KAILASH-II NEW DELHI South Delhi DL 110048 IN", "rounds": 0, "location": {"latitude": 28.5321038, "longitude": 77.2445422}, "name": " VIPUL GOODSERVICE PRIVATE LIMITED"}, {"investments": 0, "address": "FLAT- 1401", "rounds": 0, "location": {"latitude": 28.5448319, "longitude": 77.3686907}, "name": " Instant Procurement Services Private Limited"}, {"investments": 0, "address": "C1803 Brigade Metropolis", "rounds": 0, "location": {"latitude": 12.9914357, "longitude": 77.7026972}, "name": " Discovery Info Labs Private Limited"}, {"investments": 0, "address": "2/1", "rounds": 0, "location": {"latitude": 12.9214204, "longitude": 77.57101089999999}, "name": " Green Enabled It Solutions Private Limited"}, {"investments": 0, "address": "365", "rounds": 0, "location": {"latitude": 12.9178207, "longitude": 77.6306298}, "name": " Protinus Fashion Networking Private Limited"}, {"investments": 0, "address": "A-444", "rounds": 0, "location": {"latitude": 19.0173329, "longitude": 73.0385446}, "name": " Glentrans Shipping & Logistics (I) Private Limited"}, {"investments": 0, "address": "M-70A FIRST FLOOR MALVIYA NAGAR DL 110017 IN", "rounds": 0, "location": {"latitude": 28.5374511, "longitude": 77.2151643}, "name": " DIGITZ SERVICES PRIVATE LIMITED"}, {"investments": 0, "address": "69/03", "rounds": 0, "location": {"latitude": 12.9419278, "longitude": 77.5740864}, "name": " Apn Recruitment Solutions Private Limited"}, {"investments": 0, "address": "C/o. CIM Corporate Services Ltd. Edith Cavell Street", "rounds": 0, "location": {"latitude": -20.1651285, "longitude": 57.5017119}, "name": " JS Capital (M) Limited"}, {"investments": 0, "address": "401", "rounds": 0, "location": {"latitude": 19.1187711, "longitude": 72.9131582}, "name": " Aegis Care Advisors Private Limited"}, {"investments": 0, "address": "RZF-390", "rounds": 0, "location": {"latitude": 28.5776725, "longitude": 77.085419}, "name": " Super Highway Labs Private Limited."}, {"investments": 0, "address": "20 MAXWELL ROAD #09-17 MAXWELL HOUSE SINGAPORE 069113", "rounds": 0, "location": {"latitude": 1.2792508, "longitude": 103.8447681}, "name": " Nazara Pte Ltd"}, {"investments": 0, "address": "3011", "rounds": 0, "location": {"latitude": 28.4384402, "longitude": 77.0631587}, "name": " Startup Buddy Services Private Limited"}, {"investments": 0, "address": "PLOT NO-1 SECTOR-42", "rounds": 0, "location": {"latitude": 28.4580423, "longitude": 77.10824439999999}, "name": " Urbanjoy E Services Private Limited"}, {"investments": 0, "address": "A-506", "rounds": 0, "location": {"latitude": 18.9813547, "longitude": 72.8386015}, "name": " Jobbie Services India Private Limited"}, {"investments": 0, "address": "6129/1", "rounds": 0, "location": {"latitude": 28.5268416, "longitude": 77.1488759}, "name": " Just4Kids Services Private Limited"}, {"investments": 0, "address": "G-9 Siddhartha Building", "rounds": 0, "location": {"latitude": 28.5481091, "longitude": 77.252055}, "name": " Printland Digital (India) Private Limited"}, {"investments": 0, "address": "101", "rounds": 0, "location": {"latitude": 19.0662653, "longitude": 72.88359489999999}, "name": " Pragmatix Services Private Limited"}, {"investments": 0, "address": "20A Maheshwari Mansion 34 L Jagmohandas Marg", "rounds": 0, "location": {"latitude": 18.961827, "longitude": 72.8018377}, "name": " Ignite Education Private Limited"}, {"investments": 0, "address": "No 54/32 Mount Poonamallee Main Road St Thomas Mount Chennai Chennai TN 600016 IN", "rounds": 0, "location": {"latitude": 13.0380012, "longitude": 80.160574}, "name": " Kobster E-Shop Private Limited"}, {"investments": 0, "address": "1st Floor", "rounds": 0, "location": {"latitude": 18.5463286, "longitude": 73.903314}, "name": " Workapps Solutions Private Limited."}, {"investments": 0, "address": "REGUS BUSINESS CENTRE (DELHI) PVT. LTD LEVEL-2", "rounds": 0, "location": {"latitude": 28.538213, "longitude": 77.288562}, "name": " Mogli Labs (India) Private Limited"}, {"investments": 0, "address": "3rd Floor", "rounds": 0, "location": {"latitude": 13.0433089, "longitude": 80.2474222}, "name": " Eshakti.Com Private Limited"}, {"investments": 0, "address": "4 SHENTON WAY #15-01 SGX CENTRE II SINGAPORE 068807", "rounds": 0, "location": {"latitude": 1.2792993, "longitude": 103.8498021}, "name": " Practo Pte. Ltd."}, {"investments": 0, "address": "HOUSE NO. 37", "rounds": 0, "location": {"latitude": 28.572164, "longitude": 77.26858299999999}, "name": " Betaout Technologies Private Limited"}, {"investments": 0, "address": "Barrack no. 17/1 Upper Anand Parbat New Delhi DL 110005 IN", "rounds": 0, "location": {"latitude": 28.6331595, "longitude": 77.2226795}, "name": " Frame Techonology Marketing Services Private Limited"}, {"investments": 0, "address": "B 103", "rounds": 0, "location": {"latitude": 19.109978, "longitude": 72.8263551}, "name": " South Yarra Holdings"}, {"investments": 0, "address": "W-129", "rounds": 0, "location": {"latitude": 28.5781487, "longitude": 77.1932399}, "name": " Sagacito Technologies Private Limited"}, {"investments": 0, "address": "Office No.1", "rounds": 0, "location": {"latitude": 28.63938, "longitude": 77.208766}, "name": " Wedwise Events Private Limited"}, {"investments": 0, "address": "No.03 A2 Third Floor ", "rounds": 0, "location": {"latitude": 12.9901463, "longitude": 80.24181449999999}, "name": " Airwood Aerostructures Private Limited"}, {"investments": 0, "address": "4/1", "rounds": 0, "location": {"latitude": 28.5421482, "longitude": 77.20528209999999}, "name": " Renomania India Private Limited"}, {"investments": 0, "address": "IFS Court", "rounds": 0, "location": {"latitude": -20.2425071, "longitude": 57.4956465}, "name": " SCI Growth Investments II"}, {"investments": 0, "address": "279 ANARKALI COMPLEX JHANDEWALAN EXTN NEW DELHI Central Delhi DL 110055 IN", "rounds": 0, "location": {"latitude": 28.6446653, "longitude": 77.20340759999999}, "name": " Zobtree Ventures Private Limited"}, {"investments": 0, "address": "NO. 42", "rounds": 0, "location": {"latitude": 13.0089608, "longitude": 77.5657705}, "name": " Cimplyfive Corporate Secretarial Services Private Limited"}, {"investments": 0, "address": "No.307", "rounds": 0, "location": {"latitude": 12.9692122, "longitude": 77.6412849}, "name": " Instavans Logistics Private Limited"}, {"investments": 0, "address": "160", "rounds": 0, "location": {"latitude": 25.4456821, "longitude": 81.8689062}, "name": " Inweone Technologies Private Limited"}, {"investments": 0, "address": "304 KRISHNA HARMONY 14/2 NEW PALASIA INDORE MP 452001 IN", "rounds": 0, "location": {"latitude": 22.7275516, "longitude": 75.8834859}, "name": " Zootout Advertising Private Limited"}, {"investments": 0, "address": "217", "rounds": 0, "location": {"latitude": 13.387036, "longitude": 74.73759299999999}, "name": " Robosoft Technologies Private Limited"}, {"investments": 0, "address": "OFFICE NO-322", "rounds": 0, "location": {"latitude": 26.8549447, "longitude": 75.8250475}, "name": " Next Door Learning Solutions Private Limited"}, {"investments": 0, "address": "Flat No 002", "rounds": 0, "location": {"latitude": 13.0033595, "longitude": 77.6196377}, "name": " Axilly Labs Private Limited"}, {"investments": 0, "address": "Plot No.17", "rounds": 0, "location": {"latitude": 17.4401303, "longitude": 78.3985314}, "name": " Darwinbox Digital Solutions Private Limited"}, {"investments": 0, "address": "2690B", "rounds": 0, "location": {"latitude": 28.6410123, "longitude": 77.2460469}, "name": " Kromozones Software Private Limited"}, {"investments": 0, "address": "24/6 S/F PANT NAGAR", "rounds": 0, "location": {"latitude": 28.585412, "longitude": 77.2434461}, "name": " Talentiser Private Limited"}, {"investments": 0, "address": "2nd and 3rd floor", "rounds": 0, "location": {"latitude": 12.9352429, "longitude": 77.6237055}, "name": " Futuron Systems Private Limited"}, {"investments": 0, "address": "B9", "rounds": 0, "location": {"latitude": 28.557127, "longitude": 77.205283}, "name": " Goldvip Technology Solutions Private Limited"}, {"investments": 0, "address": "FLAT NO. A 2/901", "rounds": 0, "location": {"latitude": 25.1848959, "longitude": 75.908221}, "name": " Innoplexus Consulting Services Private Limited"}, {"investments": 0, "address": "2/22", "rounds": 0, "location": {"latitude": 28.6554256, "longitude": 77.1219618}, "name": " Taxmann Education Private Limited"}, {"investments": 0, "address": "NO.14 ", "rounds": 0, "location": {"latitude": 13.0470133, "longitude": 80.26237270000001}, "name": " Cherrytin Online Private Limited"}, {"investments": 0, "address": "2711 Centerville Rd", "rounds": 0, "location": {"latitude": 39.7545377, "longitude": -75.62730599999999}, "name": " Vanguard International Growth Fund through Vanguard World Fund"}, {"investments": 0, "address": "B-1/102", "rounds": 0, "location": {"latitude": 28.7246973, "longitude": 77.1311382}, "name": " Casa2 Stays Private Limited"}, {"investments": 0, "address": "Plot No M-20", "rounds": 0, "location": {"latitude": 28.652072, "longitude": 77.410178}, "name": " Jetstartus Technology Private Limited"}, {"investments": 0, "address": "94H", "rounds": 0, "location": {"latitude": 13.0131968, "longitude": 77.5762967}, "name": " Tricog Health Services Private Limited"}, {"investments": 0, "address": "D/304", "rounds": 0, "location": {"latitude": 19.116994, "longitude": 72.874544}, "name": " Nodd Ventures Private Limited"}, {"investments": 0, "address": "138/1 CITY CENTER HINJEWADI PUNE Pune MH 411057 IN", "rounds": 0, "location": {"latitude": 18.5863132, "longitude": 73.73863779999999}, "name": " Orange Etokri India Private Limited"}, {"investments": 0, "address": "14", "rounds": 0, "location": {"latitude": 28.6361113, "longitude": 77.29301}, "name": " M/S Share India Commodity Brokers (P) Limited"}, {"investments": 0, "address": "12-13/ D IL Palazzo Little", "rounds": 0, "location": {"latitude": 18.9544302, "longitude": 72.80273319999999}, "name": " Rab Enterprises India Pvt Ltd"}, {"investments": 0, "address": "Site No.9", "rounds": 0, "location": {"latitude": 12.9246477, "longitude": 77.6385854}, "name": " 63Ideas Infolabs Private Limited"}, {"investments": 0, "address": "B-104", "rounds": 0, "location": {"latitude": 12.9213943, "longitude": 77.66495669999999}, "name": " Artoo It Solutions Private Limited"}, {"investments": 0, "address": "#1314", "rounds": 0, "location": {"latitude": 12.9755594, "longitude": 77.6359786}, "name": " Knolskape Solutions Private Limited."}, {"investments": 0, "address": "5th floor", "rounds": 0, "location": {"latitude": -20.2411651, "longitude": 57.496503}, "name": " Sequioa Capital India Investments Holdings III"}, {"investments": 0, "address": "68", "rounds": 0, "location": {"latitude": 28.5519236, "longitude": 77.26876419999999}, "name": " C.E. Info Systems Private Limited"}, {"investments": 0, "address": "GIRNAR 21", "rounds": 0, "location": {"latitude": 26.8993963, "longitude": 75.8267549}, "name": " Girnar Software Private Limited"}, {"investments": 0, "address": "126", "rounds": 0, "location": {"latitude": 19.076412, "longitude": 72.8649327}, "name": " Andromeda Sales And Distribution Private Limited"}, {"investments": 0, "address": "State of Nevada USA", "rounds": 0, "location": {"latitude": 38.8026097, "longitude": -116.419389}, "name": " Chargifi Inc"}, {"investments": 0, "address": "90/31B", "rounds": 0, "location": {"latitude": 28.536472, "longitude": 77.223083}, "name": " Retention Nine Technologies Private Limited"}, {"investments": 0, "address": "England and Wales", "rounds": 0, "location": {"latitude": 53.3414328, "longitude": -1.2966629}, "name": " Chargifi Limited"}, {"investments": 0, "address": "#703", "rounds": 0, "location": {"latitude": 12.9161226, "longitude": 77.5832312}, "name": " Catamaran Ventures Llp"}, {"investments": 0, "address": "1st Floor", "rounds": 0, "location": {"latitude": 12.938922, "longitude": 77.609537}, "name": " Razorpay Software Private Limited"}, {"investments": 0, "address": "No. 703", "rounds": 0, "location": {"latitude": 12.9161362, "longitude": 77.5838412}, "name": " Catamaran Advisors Llp"}, {"investments": 0, "address": "39/1", "rounds": 0, "location": {"latitude": 12.9711857, "longitude": 77.6367389}, "name": " Hummingbill Technologies (India) Private Limited"}, {"investments": 0, "address": "2711 Centerville Rd", "rounds": 0, "location": {"latitude": 39.7545377, "longitude": -75.62730599999999}, "name": " Vanguard Variable Insurance Funds"}, {"investments": 0, "address": "S 15 2nd Floor Economist House", "rounds": 0, "location": {"latitude": 13.0117806, "longitude": 80.2192298}, "name": " Veritas Finance Private Limited"}, {"investments": 0, "address": "203", "rounds": 0, "location": {"latitude": 26.9154346, "longitude": 75.8064996}, "name": " Winiin Taxscope Private Limited"}, {"investments": 0, "address": "C 5-6 B-Wing", "rounds": 0, "location": {"latitude": 18.9959454, "longitude": 72.8158352}, "name": " Level Playingfield Private Limited"}, {"investments": 0, "address": "No. 818/1", "rounds": 0, "location": {"latitude": 12.9112223, "longitude": 77.6773217}, "name": " Interview Master Technology Solutions Private Limited"}, {"investments": 0, "address": "No 18", "rounds": 0, "location": {"latitude": 12.9121852, "longitude": 77.6355557}, "name": " Truweight Wellness Pvt.Ltd"}, {"investments": 0, "address": "A 1/93", "rounds": 0, "location": {"latitude": 28.5423316, "longitude": 77.2279848}, "name": " Creative Living Solutions Private Limited"}, {"investments": 0, "address": "PLOT NO.305", "rounds": 0, "location": {"latitude": 17.448251, "longitude": 78.391823}, "name": " Wisdom It Services India Private Limited"}, {"investments": 0, "address": "AD-126-C DDA FLATS", "rounds": 0, "location": {"latitude": 28.7195155, "longitude": 77.1579531}, "name": " Eduposse Technologies Private Limited"}, {"investments": 0, "address": "102", "rounds": 0, "location": {"latitude": 17.4554524, "longitude": 78.3027755}, "name": " Motiveprime Consumer Electronics Private Limited"}, {"investments": 0, "address": "643", "rounds": 0, "location": {"latitude": 12.970823, "longitude": 77.6430443}, "name": " Zendrive Technologies India Private Limited"}, {"investments": 0, "address": "D-58", "rounds": 0, "location": {"latitude": 28.534345, "longitude": 77.260414}, "name": " Grownout Solutions Private Limited"}, {"investments": 0, "address": "SRI NARAYANA MANSIONS", "rounds": 0, "location": {"latitude": 12.940522, "longitude": 77.575711}, "name": " Hashcube Technologies Private Limited"}, {"investments": 0, "address": "A904", "rounds": 0, "location": {"latitude": 18.5522132, "longitude": 73.7704971}, "name": " Rolocule Games Private Limited"}, {"investments": 0, "address": "No. 16/3", "rounds": 0, "location": {"latitude": 12.970226, "longitude": 77.628104}, "name": " Moonfrog Labs Private Limited"}, {"investments": 0, "address": "Office No-121", "rounds": 0, "location": {"latitude": 28.448479, "longitude": 77.0758733}, "name": " Balancehero India Private Limited"}, {"investments": 0, "address": "B-194 ", "rounds": 0, "location": {"latitude": 28.617512, "longitude": 77.301524}, "name": " Epsilon Eduventures Private Limited"}, {"investments": 0, "address": "8-2-334/39 ROAD NO -3 BANJARAHILLS HYDERABAD TG 500034 IN", "rounds": 0, "location": {"latitude": 17.4284031, "longitude": 78.43266919999999}, "name": " Octathorpe Web-Consultants Private Limited"}, {"investments": 0, "address": "321", "rounds": 0, "location": {"latitude": 19.0167972, "longitude": 72.8286997}, "name": " Gamiana Digital Entertainment Private Limited"}, {"investments": 0, "address": "House #45/1", "rounds": 0, "location": {"latitude": 12.9280015, "longitude": 77.6362067}, "name": " Mm Sports Private Limited"}, {"investments": 0, "address": "93-A", "rounds": 0, "location": {"latitude": 18.5260375, "longitude": 73.8296931}, "name": " Mastermind Sports And Accessories Private Limited"}, {"investments": 0, "address": "NO.7", "rounds": 0, "location": {"latitude": 12.9774279, "longitude": 80.1899469}, "name": " Identiti Design Private Limited"}, {"investments": 0, "address": "H. NO. 3608 SECTOR-32-D CHANDIGARH CH 160047 IN", "rounds": 0, "location": {"latitude": 30.709058, "longitude": 76.77439749999999}, "name": " Edurev Solutions Private Limited"}, {"investments": 0, "address": "No. 1276/90/K", "rounds": 0, "location": {"latitude": 12.911723, "longitude": 77.6411207}, "name": " Dhruva Infotech Private Limited"}, {"investments": 0, "address": "35/B", "rounds": 0, "location": {"latitude": 12.9146597, "longitude": 77.5989682}, "name": " Aryaka Networks India Private Limited"}, {"investments": 0, "address": "X/3397", "rounds": 0, "location": {"latitude": 28.6607628, "longitude": 77.26119849999999}, "name": " Pyxel Web Solutions Private Limited"}, {"investments": 0, "address": "A-1/224 2nd Floor Janak Puri New Delhi New Delhi DL 110058 IN", "rounds": 0, "location": {"latitude": 28.621899, "longitude": 77.08783849999999}, "name": " Merchbay Products Private Limited"}, {"investments": 0, "address": "Flat No. 403", "rounds": 0, "location": {"latitude": 28.591386, "longitude": 77.0602633}, "name": " Leh Leh 7 Entertainment Solutions Private Limited"}, {"investments": 0, "address": "A 003", "rounds": 0, "location": {"latitude": 28.6247328, "longitude": 77.4378929}, "name": " Winwin Rides Private Limited"}, {"investments": 0, "address": "311", "rounds": 0, "location": {"latitude": 28.595426, "longitude": 77.048502}, "name": " Addodoc Technologies Private Limited"}, {"investments": 0, "address": "83-B VAISHALI NAGAR ANNAPURNA ROAD INDORE Indore MP 452009 IN", "rounds": 0, "location": {"latitude": 22.6912165, "longitude": 75.83783729999999}, "name": " Positron Internet Services Private Limited"}, {"investments": 0, "address": "H. NO. 153", "rounds": 0, "location": {"latitude": 25.4546551, "longitude": 81.7800639}, "name": " Boiban Business Private Limited"}, {"investments": 0, "address": "1 ST FLOOR", "rounds": 0, "location": {"latitude": 17.428901, "longitude": 78.439679}, "name": " Globarena Technologies Private Limited"}, {"investments": 0, "address": "304", "rounds": 0, "location": {"latitude": 19.139645, "longitude": 72.83413999999999}, "name": " Schoolwear Private Limited"}, {"investments": 0, "address": "A2", "rounds": 0, "location": {"latitude": 12.9445624, "longitude": 77.6249387}, "name": " Instano Technologies Private Limited"}, {"investments": 0, "address": "C 8/5 GROUND FLOOR DLF PHASE-1 GURGAON Gurgaon HR 122001 IN", "rounds": 0, "location": {"latitude": 28.475552, "longitude": 77.1021025}, "name": " Sunterrace Energy Private Limited"}, {"investments": 0, "address": "E-510 CRYSTAL PLAZANEW LINK ROAD ANDHERI (W) MUMBAI Mumbai City MH 400053 IN", "rounds": 0, "location": {"latitude": 19.1407985, "longitude": 72.8318376}, "name": " Indiaideas Com Limited"}, {"investments": 0, "address": "3rd Floor", "rounds": 0, "location": {"latitude": 12.9420766, "longitude": 77.62191260000002}, "name": " Juspay Technologies Private Limited"}, {"investments": 0, "address": "G-11/2 SANGAM VIHAR NEW DELHI South Delhi DL 110062 IN", "rounds": 0, "location": {"latitude": 28.526405, "longitude": 77.15551219999999}, "name": " Smsdaak India Limited"}, {"investments": 0, "address": "NO.595", "rounds": 0, "location": {"latitude": 12.9062367, "longitude": 77.5957025}, "name": " Aujas Networks Private Limited"}, {"investments": 0, "address": "No.238", "rounds": 0, "location": {"latitude": 12.9344613, "longitude": 77.61342619999999}, "name": " Evibe Technologies Private Limited"}, {"investments": 0, "address": "NO. 200", "rounds": 0, "location": {"latitude": 12.923358, "longitude": 77.6348862}, "name": " Yostra Labs Private Limited"}, {"investments": 0, "address": "713 Sahar Plaza", "rounds": 0, "location": {"latitude": 19.1129553, "longitude": 72.85464979999999}, "name": " Citrus Payment Solutions Private Limited"}, {"investments": 0, "address": "#270", "rounds": 0, "location": {"latitude": 12.958565, "longitude": 77.640909}, "name": " Edreams Edusoft Private Limited"}, {"investments": 0, "address": "51 GOLDHILL PLAZA #07-10/11 SINGAPORE 308900", "rounds": 0, "location": {"latitude": 1.3181315, "longitude": 103.8428729}, "name": " InstaReM PTE limited"}, {"investments": 0, "address": "303", "rounds": 0, "location": {"latitude": 28.5141683, "longitude": 77.170085}, "name": " D2C Consulting Services Private Limited"}, {"investments": 0, "address": "No.14-F-1", "rounds": 0, "location": {"latitude": 12.8728909, "longitude": 77.4433796}, "name": " Localcube Commerce Private Limited"}, {"investments": 0, "address": "401-B NIRANJAN BLDG99 MARINE DRIVE MUMBAI MH 400002 IN", "rounds": 0, "location": {"latitude": 18.9442199, "longitude": 72.8244189}, "name": " Ziqitza Health Care Limited"}, {"investments": 0, "address": "Manoj Arcade", "rounds": 0, "location": {"latitude": 12.9029476, "longitude": 77.6483356}, "name": " Simplilearn Solutions Private Limited"}, {"investments": 0, "address": "1-2", "rounds": 0, "location": {"latitude": 23.062791, "longitude": 72.55789229999999}, "name": " Almamapper Technologies Private Limited"}, {"investments": 0, "address": "No. 22", "rounds": 0, "location": {"latitude": 12.9145859, "longitude": 77.5610811}, "name": " Blue Book Bangalore Private Limited"}, {"investments": 0, "address": "No.130", "rounds": 0, "location": {"latitude": 12.9045937, "longitude": 77.5974686}, "name": " Nanolocal Technologies Private Limited"}, {"investments": 0, "address": "S. No. 123/1", "rounds": 0, "location": {"latitude": 18.5667229, "longitude": 73.7777555}, "name": " Inuxu Digital Media Technologies Private Limited"}, {"investments": 0, "address": "168", "rounds": 0, "location": {"latitude": 1.2777366, "longitude": 103.8476215}, "name": " Lathe Investment Private Limited"}, {"investments": 0, "address": "Richmond Gatehouse Llp", "rounds": 0, "location": {"latitude": 51.5798926, "longitude": -0.3370447}, "name": " Pouring Pounds Ltd"}, {"investments": 0, "address": "B-203", "rounds": 0, "location": {"latitude": 28.5968836, "longitude": 77.2960932}, "name": " DIAL PORT SOLUTION PRIVATE LIMITED"}, {"investments": 0, "address": "# A 2 - 1901", "rounds": 0, "location": {"latitude": 12.8882473, "longitude": 77.5915824}, "name": " HIVELOOP TECHNOLOGY PRIVATE LIMITED"}, {"investments": 0, "address": "122-A", "rounds": 0, "location": {"latitude": 18.9252996, "longitude": 72.82341869999999}, "name": " FOURTHEYE WEB TECHNOLOGIES PRIVATE LIMITED"}, {"investments": 0, "address": "703B", "rounds": 0, "location": {"latitude": 28.5476053, "longitude": 77.25241419999999}, "name": " ASANKHYA RETAIL PRIVATE LIMITED"}, {"investments": 0, "address": "7-E-2", "rounds": 0, "location": {"latitude": 28.6458728, "longitude": 77.1716658}, "name": " ALPINISMO ONLINE VENTURES PRIVATE LIMITED"}, {"investments": 0, "address": "E 43/1", "rounds": 0, "location": {"latitude": 28.536297, "longitude": 77.27059299999999}, "name": " DESIGNBIDS TECHNOLOGIES PRIVATE LIMITED"}, {"investments": 0, "address": "A-107 Ittina Abby Apartments", "rounds": 0, "location": {"latitude": 12.9700582, "longitude": 77.6749277}, "name": " ZWAYAM DIGITAL PRIVATE LIMITED"}, {"investments": 0, "address": "B-173 G/F YOJANA VIHAR DELHI East Delhi DL 110092 IN", "rounds": 0, "location": {"latitude": 28.6621239, "longitude": 77.31592959999999}, "name": " Dealmonk E-Services Private Limited"}, {"investments": 0, "address": "No. 33/01", "rounds": 0, "location": {"latitude": 12.9855744, "longitude": 77.5958347}, "name": " HEYPILLOW TECHNOLOGY PRIVATE LIMITED"}, {"investments": 0, "address": "84", "rounds": 0, "location": {"latitude": 28.6312495, "longitude": 77.2784114}, "name": " MARA STUDIOS PRIVATE LIMITED"}, {"investments": 0, "address": "1st Floor", "rounds": 0, "location": {"latitude": 26.8371857, "longitude": 75.83379099999999}, "name": " Girnarsoft Education Services Private Limited."}, {"investments": 0, "address": "International Financial Limited IFS Court", "rounds": 0, "location": {"latitude": -20.242499, "longitude": 57.49564899999999}, "name": " Lightspeed venture partners IX Mauritius"}, {"investments": 0, "address": "#148", "rounds": 0, "location": {"latitude": 12.9204754, "longitude": 77.63564579999999}, "name": " CHATPAY COMMERCE PRIVATE LIMITED"}, {"investments": 0, "address": "KHYKHA ALCOVE No.10", "rounds": 0, "location": {"latitude": 12.937119, "longitude": 77.629521}, "name": " EATLO TECH-SOLUTIONS PRIVATE LIMITED"}, {"investments": 0, "address": "C-886 Sushant Lok I Gurgaon Gurgaon HR 122001 IN", "rounds": 0, "location": {"latitude": 28.4655395, "longitude": 77.07914269999999}, "name": " RED GINGER TECHNOLOGIES PRIVATE LIMITED"}, {"investments": 0, "address": "401-B NIRANJAN BUIDLING", "rounds": 0, "location": {"latitude": 18.9442199, "longitude": 72.8244189}, "name": " Murgency Global Services Private Limited"}, {"investments": 0, "address": "No.1054", "rounds": 0, "location": {"latitude": 12.9270079, "longitude": 77.6332348}, "name": " Servicemonk Technologies Private Limited"}, {"investments": 0, "address": "196", "rounds": 0, "location": {"latitude": 22.6061934, "longitude": 88.4110051}, "name": " KAHAN TECHNOLOGIES PRIVATE LIMITED"}, {"investments": 0, "address": "#11", "rounds": 0, "location": {"latitude": 12.931004, "longitude": 77.62967400000001}, "name": " Unbox Technologies Private Limited"}, {"investments": 0, "address": "# 5-10", "rounds": 0, "location": {"latitude": 13.0098368, "longitude": 77.60635719999999}, "name": " Fintellix Solutions Private Limited"}, {"investments": 0, "address": "21/22 TOWER 4", "rounds": 0, "location": {"latitude": 19.1485209, "longitude": 72.82815459999999}, "name": " Appvintage Solutions Private Limited."}, {"investments": 0, "address": "CIIE BUILDING", "rounds": 0, "location": {"latitude": 23.034531, "longitude": 72.532876}, "name": " Alma Connect Solutions Private Limited"}, {"investments": 0, "address": "608", "rounds": 0, "location": {"latitude": 28.6317741, "longitude": 77.3046145}, "name": " Axiom Research Labs Private Limited"}, {"investments": 0, "address": "FLAT NO.7", "rounds": 0, "location": {"latitude": 13.0057784, "longitude": 80.2512294}, "name": " Innonano Research Private Limited"}, {"investments": 0, "address": "H.NO A-26", "rounds": 0, "location": {"latitude": 23.180403, "longitude": 77.438909}, "name": " Vyom Softech Private Limited"}, {"investments": 0, "address": "PLOT NO. 178", "rounds": 0, "location": {"latitude": 28.4831616, "longitude": 77.08691929999999}, "name": " Kaaryah Lifestyle Solutions Private Limited."}, {"investments": 0, "address": "BC-1A", "rounds": 0, "location": {"latitude": 28.5562204, "longitude": 77.16778769999999}, "name": " Zocalo Realtech Private Limited"}, {"investments": 0, "address": "Homewell Towers 16", "rounds": 0, "location": {"latitude": 12.9955724, "longitude": 77.6195484}, "name": " Crowdflux Technology Private Limited"}, {"investments": 0, "address": "C-56 BASEMENT MAIN SHIVALIK ROAD", "rounds": 0, "location": {"latitude": 28.5374531, "longitude": 77.2106189}, "name": " Soothe Healthcare Private Limited"}, {"investments": 0, "address": "90/31B", "rounds": 0, "location": {"latitude": 28.536472, "longitude": 77.223083}, "name": " Techwider Technologies Private Limited"}, {"investments": 0, "address": "302/304 Regent Chambers", "rounds": 0, "location": {"latitude": 18.9302121, "longitude": 72.8225621}, "name": " Raay Global Investments Private Limited"}, {"investments": 0, "address": "Flat No:-6/2", "rounds": 0, "location": {"latitude": 16.5114118, "longitude": 80.66545870000002}, "name": " Amoras Healthcare Private Limited"}, {"investments": 0, "address": "12-D/13-D", "rounds": 0, "location": {"latitude": 18.9544302, "longitude": 72.80273319999999}, "name": " Doit Enterprises India Pvt Ltd"}, {"investments": 0, "address": "Amsterdamsestraatweg 28", "rounds": 0, "location": {"latitude": 52.2740111, "longitude": 4.9721002}, "name": " Bertelsmann Nederland B.V."}, {"investments": 0, "address": "4th floor", "rounds": 0, "location": {"latitude": -20.242972, "longitude": 57.49288199999999}, "name": " Mayfield India Ii"}, {"investments": 0, "address": "4th Floor", "rounds": 0, "location": {"latitude": -20.243199, "longitude": 57.496375}, "name": " Darrin Capital Management"}, {"investments": 0, "address": "No. 457", "rounds": 0, "location": {"latitude": 12.9720546, "longitude": 77.642343}, "name": " Dunzo Digital Private Limited"}, {"investments": 0, "address": "76/1", "rounds": 0, "location": {"latitude": 28.5541775, "longitude": 77.2512917}, "name": " Rooms Worldwide Private Limited"}, {"investments": 0, "address": "179 D POCKET A3 MAYUR VIHAR PH - III NEW DELHI East Delhi DL 110096 IN", "rounds": 0, "location": {"latitude": 28.6095544, "longitude": 77.3302981}, "name": " Zeolr Technologies Private Limited"}, {"investments": 0, "address": "39", "rounds": 0, "location": {"latitude": 19.1225193, "longitude": 72.84483209999999}, "name": " Sbb Venture Private Limited."}, {"investments": 0, "address": "1237/1", "rounds": 0, "location": {"latitude": 12.9254629, "longitude": 77.5620726}, "name": " Senzible Marketing Private Limited"}, {"investments": 0, "address": "1014", "rounds": 0, "location": {"latitude": 19.118285, "longitude": 72.9052343}, "name": " Zoctr Health Private Limited"}, {"investments": 0, "address": "B-705/706", "rounds": 0, "location": {"latitude": 19.09135, "longitude": 72.915868}, "name": " New Age Networks Private Limited"}, {"investments": 0, "address": "202/B", "rounds": 0, "location": {"latitude": 19.0536222, "longitude": 72.887749}, "name": " Satvika Bio-Foods India Private Limited"}, {"investments": 0, "address": "203", "rounds": 0, "location": {"latitude": 28.549355, "longitude": 77.251288}, "name": " Iluminar Media Private Limited"}, {"investments": 0, "address": "HOUSE # 1112", "rounds": 0, "location": {"latitude": 12.9738458, "longitude": 77.635334}, "name": " Bookyourgym Fitness Private Limited"}, {"investments": 0, "address": "Coastal Building", "rounds": 0, "location": {"latitude": 18.4284537, "longitude": -64.6131442}, "name": " Rhythm Ventures Limited"}, {"investments": 0, "address": "7 SERVICE ROAD DOMLUR 100 FEET ROAD INDIRANAGAR BANGALORE KA 560071 IN", "rounds": 0, "location": {"latitude": 12.9596069, "longitude": 77.6386321}, "name": " Supermarket Grocery Supplies Private Limited"}, {"investments": 0, "address": "No.1032", "rounds": 0, "location": {"latitude": 12.918196, "longitude": 77.649446}, "name": " Njuta Technologies Private Limited"}, {"investments": 0, "address": "Flat 310", "rounds": 0, "location": {"latitude": 12.9235717, "longitude": 77.60813399999999}, "name": " Adriyo Technology Private Limited"}, {"investments": 0, "address": "7 GANGA COMPLEX", "rounds": 0, "location": {"latitude": 18.5496863, "longitude": 73.8888345}, "name": " Volare Technologies Private Limited"}, {"investments": 0, "address": "B3/72 JANAKPURI NEW DELHI DL 110058 IN", "rounds": 0, "location": {"latitude": 28.63094, "longitude": 77.08924499999999}, "name": " Techlites Solution Private Limited"}, {"investments": 0, "address": "PLOT NO.-31 UDYOG VIHAR", "rounds": 0, "location": {"latitude": 28.4941463, "longitude": 77.0809093}, "name": " Quickdel Logistics Private Limited"}, {"investments": 0, "address": "245 AGCR Enclave Opposite Karkardooma Court Delhi DL 110092 IN", "rounds": 0, "location": {"latitude": 28.6546468, "longitude": 77.2972589}, "name": " Tausch Tradeface Private Limited"}, {"investments": 0, "address": "207", "rounds": 0, "location": {"latitude": 28.549008, "longitude": 77.272071}, "name": " Red Pixels Ventures Limited"}, {"investments": 0, "address": "NO.6 SBI ROAD(MADRAS BANK ROAD) BANGALORE KA 560001 IN", "rounds": 0, "location": {"latitude": 12.9724427, "longitude": 77.60164979999999}, "name": " Spunklane Media Private Limited"}, {"investments": 0, "address": "No.10", "rounds": 0, "location": {"latitude": 12.9393377, "longitude": 77.6288824}, "name": " TutorVista Education India Private Limited"}, {"investments": 0, "address": "No. 548", "rounds": 0, "location": {"latitude": 12.9089588, "longitude": 77.63802009999999}, "name": " Poncho Hospitality Private Limited"}, {"investments": 0, "address": "A 303", "rounds": 0, "location": {"latitude": 19.1172873, "longitude": 72.889785}, "name": " Tangramme Furnishing Solutions Private Limited"}, {"investments": 0, "address": "B-186", "rounds": 0, "location": {"latitude": 28.695022, "longitude": 77.135089}, "name": " Legal Raasta Technologies Private Limited"}, {"investments": 0, "address": "PLOT NO.83", "rounds": 0, "location": {"latitude": 17.344734, "longitude": 78.51829099999999}, "name": " Bojja It Solutions Private Limited"}, {"investments": 0, "address": "401", "rounds": 0, "location": {"latitude": 19.0827819, "longitude": 72.8361349}, "name": " Mhealth Ventures India Private Limited"}, {"investments": 0, "address": "Plot No. 4/25", "rounds": 0, "location": {"latitude": 18.6445706, "longitude": 73.82989959999999}, "name": " Tork Motors Private Limited"}, {"investments": 0, "address": "C-110", "rounds": 0, "location": {"latitude": 28.511304, "longitude": 77.23256040000001}, "name": " High City Retail Private Limited"}, {"investments": 0, "address": "1st FLOOR", "rounds": 0, "location": {"latitude": 12.9153738, "longitude": 77.6281818}, "name": " Mud Flap Technologies Private Limited"}, {"investments": 0, "address": "11", "rounds": 0, "location": {"latitude": 12.9052303, "longitude": 77.58829829999999}, "name": " Unilog Content Solutions Private Limited"}, {"investments": 0, "address": "H No. 35", "rounds": 0, "location": {"latitude": 12.9062313, "longitude": 77.62967499999999}, "name": " Justlikenew Technologies Private Limited"}, {"investments": 0, "address": "10B", "rounds": 0, "location": {"latitude": 28.6200527, "longitude": 77.2364103}, "name": " Sirion Labs Private Limited"}, {"investments": 0, "address": "E - 12", "rounds": 0, "location": {"latitude": 18.9711833, "longitude": 72.81014119999999}, "name": " Rockdude Impex Private Limited"}, {"investments": 0, "address": "D-3 FIRST FLOOR MAHARANI BAGH NEW DELHI DL 110065 IN", "rounds": 0, "location": {"latitude": 28.5227894, "longitude": 77.2147492}, "name": " High Street Essentials Private Limited"}, {"investments": 0, "address": "37", "rounds": 0, "location": {"latitude": 22.5446882, "longitude": 88.35818689999999}, "name": " Applop Mobile Solutions Private Limited"}, {"investments": 0, "address": "No.288", "rounds": 0, "location": {"latitude": 12.9233976, "longitude": 77.5814199}, "name": " Shopalyst Technologies Private Limited"}, {"investments": 0, "address": "NO. 2001", "rounds": 0, "location": {"latitude": 12.9283657, "longitude": 77.669674}, "name": " Homevista Decor And Furnishing Private Limited."}, {"investments": 0, "address": "104", "rounds": 0, "location": {"latitude": 12.9714488, "longitude": 77.60087229999999}, "name": " Ocio Hospitality Private Limited."}, {"investments": 0, "address": "408 AASHIRWAD ENCLAVE104 I P EXTENSION DELHI DL 110092 IN", "rounds": 0, "location": {"latitude": 28.6304231, "longitude": 77.3093523}, "name": " Intermesh Shopping Network Private Limited"}, {"investments": 0, "address": "H. No. 199 SECTOR- 15A FARIDABAD Faridabad HR 121007 IN", "rounds": 0, "location": {"latitude": 28.396602, "longitude": 77.321805}, "name": " Lybrate India Private Limited"}, {"investments": 0, "address": "Level 2", "rounds": 0, "location": {"latitude": 28.538213, "longitude": 77.288562}, "name": " Solvy Tech Solutions Private Limited"}, {"investments": 0, "address": "No. 217", "rounds": 0, "location": {"latitude": 12.9163041, "longitude": 77.64482579999999}, "name": " Moneyvation Technologies Private Limited"}, {"investments": 0, "address": "NO. 1229", "rounds": 0, "location": {"latitude": 12.9113566, "longitude": 77.6334878}, "name": " Foodvista India Private Limited"}, {"investments": 0, "address": "Flat No. 02", "rounds": 0, "location": {"latitude": 19.2439862, "longitude": 72.8510244}, "name": " S-Cube Futuretech Private Limited"}, {"investments": 0, "address": "ANM-39F", "rounds": 0, "location": {"latitude": 28.484633, "longitude": 77.085095}, "name": " Surfboats Solutions Private Limited"}, {"investments": 0, "address": "Royal Demeure", "rounds": 0, "location": {"latitude": 17.4456406, "longitude": 78.38366719999999}, "name": " Mapmygenome India Limited"}, {"investments": 0, "address": "C/o. Apex Fund Services", "rounds": 0, "location": {"latitude": -20.243199, "longitude": 57.496375}, "name": " ABG Capital"}, {"investments": 0, "address": "No. 258/A", "rounds": 0, "location": {"latitude": 12.8064766, "longitude": 77.6937978}, "name": " Medgenome Labs Private Limited."}, {"investments": 0, "address": "306", "rounds": 0, "location": {"latitude": 28.5413547, "longitude": 77.2401074}, "name": " Nfx Digital Private Limited"}, {"investments": 0, "address": "M - 401", "rounds": 0, "location": {"latitude": 18.5821807, "longitude": 73.9708479}, "name": " Sminq India Solutions Private Limited."}, {"investments": 0, "address": "A 61 B/4", "rounds": 0, "location": {"latitude": 28.6310013, "longitude": 77.382041}, "name": " Innovaccer Technologies Private Limited"}, {"investments": 0, "address": "D 274 The Belaire DLF Phase V Gurgaon HR 122002 IN", "rounds": 0, "location": {"latitude": 28.4497417, "longitude": 77.1014768}, "name": " L-Fast Brands Private Limited"}, {"investments": 0, "address": "150", "rounds": 0, "location": {"latitude": 28.6162167, "longitude": 77.0424092}, "name": " Petsglam Services Private Limited"}, {"investments": 0, "address": "J-3/46", "rounds": 0, "location": {"latitude": 28.4843162, "longitude": 77.08827}, "name": " Viceroy Studios Private Limited"}, {"investments": 0, "address": "Ground Floor", "rounds": 0, "location": {"latitude": 28.6372779, "longitude": 77.30784489999999}, "name": " Vyome Biosciences Private Limited"}, {"investments": 0, "address": "12th Floor Vishwaroop IT Park Sector 30A Vashi Navi Mumbai MH 400705 IN", "rounds": 0, "location": {"latitude": 19.0646885, "longitude": 72.9966938}, "name": " Automotive Exchange Private Limited"}, {"investments": 0, "address": "505 KLJ TOWER NETAJI SUBHASH PLACE ", "rounds": 0, "location": {"latitude": 28.6961009, "longitude": 77.15270079999999}, "name": " Wiwigo Technologies Private Limited"}, {"investments": 0, "address": "D-45", "rounds": 0, "location": {"latitude": 28.564575, "longitude": 77.35777499999999}, "name": " Aarvee Idealab Technologies Private Limited."}, {"investments": 0, "address": "3rd Floor", "rounds": 0, "location": {"latitude": 12.9060862, "longitude": 77.6499161}, "name": " Urban Stay Technologies Private Limited"}, {"investments": 0, "address": "403", "rounds": 0, "location": {"latitude": 19.1178275, "longitude": 72.85368919999999}, "name": " Motocruizer Technologies India Private Limited"}, {"investments": 0, "address": "P NO. 124 GAWANDE LAYOUT TELECOM NAGAR NAGPUR Nagpur MH 440022 IN", "rounds": 0, "location": {"latitude": 21.0982573, "longitude": 79.0663893}, "name": " Sellmouse E-Marketing Private Limited"}, {"investments": 0, "address": "#538", "rounds": 0, "location": {"latitude": 12.9782113, "longitude": 77.63795379999999}, "name": " Pin Click Property Management Private Limited"}, {"investments": 0, "address": "216-3/B Gautam Nagar", "rounds": 0, "location": {"latitude": 28.5602552, "longitude": 77.2127309}, "name": " Imaniac Technologies Private Limited"}, {"investments": 0, "address": "308", "rounds": 0, "location": {"latitude": 13.0203421, "longitude": 77.6410657}, "name": " Hyperlocal Technology"}, {"investments": 0, "address": "115 SURYA NIKETAN NEW DELHI East Delhi DL 110092 IN", "rounds": 0, "location": {"latitude": 28.6560333, "longitude": 77.3083904}, "name": " Mywish Marketplaces Private Limited"}, {"investments": 0, "address": "E-59 PANCHSHILA PARK DELHI New Delhi DL 110017 IN", "rounds": 0, "location": {"latitude": 28.5423364, "longitude": 77.2149128}, "name": " Gc Web Ventures Private Limited"}, {"investments": 0, "address": "D1-004 Golden Palms", "rounds": 0, "location": {"latitude": 13.0632213, "longitude": 77.6386083}, "name": " Rentsher Online Rentals Private Limited"}, {"investments": 0, "address": "GATEWAY BLDGAPOLLO BUNDER MUMBAI Mumbai City MH 400001 IN", "rounds": 0, "location": {"latitude": 18.9236623, "longitude": 72.8329464}, "name": " Mahindra First Choice Wheels Limited"}, {"investments": 0, "address": "C-625 NEW FRIENDS COLONY 3RD FLOOR", "rounds": 0, "location": {"latitude": 28.5674621, "longitude": 77.26913259999999}, "name": " Vahan Technologies India Private Limited"}, {"investments": 0, "address": "NO. B-1504", "rounds": 0, "location": {"latitude": 12.9025052, "longitude": 77.6309926}, "name": " Pristech Technologies Private Limited"}, {"investments": 0, "address": "I-10 LAJPAT NAGAR II NEW DELHI DL 110024 IN", "rounds": 0, "location": {"latitude": 28.566516, "longitude": 77.248893}, "name": " Vcare Technologies Private Limited"}, {"investments": 0, "address": "One Plaza Old Railway Station Road Cochin Ernakulam KL 682018 IN", "rounds": 0, "location": {"latitude": 9.9879057, "longitude": 76.27896179999999}, "name": " Mobme Wireless Solutions Limited"}, {"investments": 0, "address": "Q-5/19", "rounds": 0, "location": {"latitude": 28.4849932, "longitude": 77.0943169}, "name": " Streo Technologies Private Limited"}, {"investments": 0, "address": "252", "rounds": 0, "location": {"latitude": 25.1277601, "longitude": 75.8512167}, "name": " Mr. Hot Foods Private Limited"}, {"investments": 0, "address": "M-32 Greater Kailash II New delhi South Delhi DL 110048 IN", "rounds": 0, "location": {"latitude": 28.5354924, "longitude": 77.24504280000001}, "name": " Moneymitra It Solutions Private Limited"}, {"investments": 0, "address": "H No. 331", "rounds": 0, "location": {"latitude": 28.5032472, "longitude": 77.30142}, "name": " Staqu Technologies Private Limited"}, {"investments": 0, "address": "301", "rounds": 0, "location": {"latitude": 19.1041109, "longitude": 72.84662689999999}, "name": " Happy Gaana Entertainment Pvt.Ltd."}, {"investments": 0, "address": "NO54/1", "rounds": 0, "location": {"latitude": 13.0144437, "longitude": 77.54904479999999}, "name": " Town Essentials Private Limited"}, {"investments": 0, "address": "The Empire Business Centre", "rounds": 0, "location": {"latitude": 19.001481, "longitude": 72.827787}, "name": " Halo Ventures LLP"}, {"investments": 0, "address": "807", "rounds": 0, "location": {"latitude": 28.6275203, "longitude": 77.2289285}, "name": " Rksv Commodities India Private Limited"}, {"investments": 0, "address": "A/903", "rounds": 0, "location": {"latitude": 18.476168, "longitude": 73.817523}, "name": " Custmore Interactive Solutions Private Limited"}, {"investments": 0, "address": "H.NO. K-34A", "rounds": 0, "location": {"latitude": 28.5494489, "longitude": 77.2001368}, "name": " Netree E-Services Private Limited"}, {"investments": 0, "address": "BASEMENT", "rounds": 0, "location": {"latitude": 28.41689, "longitude": 77.046716}, "name": " Satvacart Innovative Concepts Private Limited"}, {"investments": 0, "address": "640B", "rounds": 0, "location": {"latitude": 19.0189048, "longitude": 72.8520204}, "name": " Food Marshal Tech Services Private Limited"}, {"investments": 0, "address": "No.111", "rounds": 0, "location": {"latitude": 12.9321851, "longitude": 77.6156642}, "name": " Qwikcilver Solutions Private Limited"}, {"investments": 0, "address": "A-110", "rounds": 0, "location": {"latitude": 28.5710071, "longitude": 77.3490613}, "name": " Wealthapp Solution Private Limited"}, {"investments": 0, "address": "Unit No. 161", "rounds": 0, "location": {"latitude": 28.4494222, "longitude": 77.0968128}, "name": " Mealhopper Technologies Private Limited"}, {"investments": 0, "address": "D-58", "rounds": 0, "location": {"latitude": 28.534345, "longitude": 77.260414}, "name": " Cue Learn Private Limited"}, {"investments": 0, "address": "Sai Gallerium", "rounds": 0, "location": {"latitude": 13.0220336, "longitude": 77.6496482}, "name": " Touchkin Eservices Private Limited"}, {"investments": 0, "address": "D-173", "rounds": 0, "location": {"latitude": 28.474387, "longitude": 77.077016}, "name": " Muhavra Enterprises Private Limited"}, {"investments": 0, "address": "709 MAKER CHAMBERS V NARIMAN POINT MUMBAI MH 400021 IN", "rounds": 0, "location": {"latitude": 18.9244575, "longitude": 72.8230106}, "name": " Livquik Technology (India) Private Limited"}, {"investments": 0, "address": "B-82", "rounds": 0, "location": {"latitude": 28.4475062, "longitude": 77.0606754}, "name": " Hector Beverages Private Limited"}, {"investments": 0, "address": "Flat No. 5002", "rounds": 0, "location": {"latitude": 13.0846133, "longitude": 77.58867459999999}, "name": " Findulum Techlabs Private Limited"}, {"investments": 0, "address": "7TH FLOOR", "rounds": 0, "location": {"latitude": -20.2424442, "longitude": 57.4884947}, "name": " MPOF Mauritius Limited"}, {"investments": 0, "address": "O-SH.19", "rounds": 0, "location": {"latitude": 19.2054658, "longitude": 72.827601}, "name": " Urjas Energy Solutions Private Limited"}, {"investments": 0, "address": "3rd Floor", "rounds": 0, "location": {"latitude": 12.918948, "longitude": 77.6102961}, "name": " Cropin Technology Solutions Private Limited"}, {"investments": 0, "address": "3 Community centre", "rounds": 0, "location": {"latitude": 28.5231422, "longitude": 77.2078329}, "name": " Udaan Angel Partners"}, {"investments": 0, "address": "No.151", "rounds": 0, "location": {"latitude": 12.913258, "longitude": 77.63528529999999}, "name": " Ezetap Mobile Solutions Private Limited"}, {"investments": 0, "address": "4TH FLOOR", "rounds": 0, "location": {"latitude": 22.6036412, "longitude": 88.3987283}, "name": " Metaiot Technologies Private Limited"}, {"investments": 0, "address": "Plot No. 1027", "rounds": 0, "location": {"latitude": 28.4478843, "longitude": 77.0562219}, "name": " Skrilo India Private Limited"}, {"investments": 0, "address": "N-1 Block", "rounds": 0, "location": {"latitude": 13.049981, "longitude": 77.6197476}, "name": " Voonik Technologies Private Limited"}, {"investments": 0, "address": "H-502", "rounds": 0, "location": {"latitude": 28.6322338, "longitude": 77.3026115}, "name": " Duronto Technologies Private Limited"}, {"investments": 0, "address": "# 8-2-248/1/7/69", "rounds": 0, "location": {"latitude": 17.424497, "longitude": 78.451038}, "name": " Numbermall Private Limited"}, {"investments": 0, "address": "22B", "rounds": 0, "location": {"latitude": 22.5873072, "longitude": 88.3584881}, "name": " Mihup Communications Private Limited"}, {"investments": 0, "address": "903/4/5 Ashok Tower-A 63/7-4", "rounds": 0, "location": {"latitude": 18.9967389, "longitude": 72.8376653}, "name": " Outletwise Retail Private Limited"}, {"investments": 0, "address": "OFFICE NO. 206", "rounds": 0, "location": {"latitude": 19.1321327, "longitude": 72.8345389}, "name": " Green Leaves Consumer Services Private Limited"}, {"investments": 0, "address": "FIRST FLOOR", "rounds": 0, "location": {"latitude": 28.5471889, "longitude": 77.250802}, "name": " One 97 Communications India Limited"}, {"investments": 0, "address": "II-D-10A LAJPAT NAGAR NEW DELHI South Delhi DL 110024 IN", "rounds": 0, "location": {"latitude": 28.6236565, "longitude": 77.2987624}, "name": " Rosh Capital Advisory Private Limited"}, {"investments": 0, "address": "E-24", "rounds": 0, "location": {"latitude": 28.5428238, "longitude": 77.23954789999999}, "name": " Storemore Storage Solutions Private Limited"}, {"investments": 0, "address": "406", "rounds": 0, "location": {"latitude": 28.4437533, "longitude": 77.0553978}, "name": " Veddis Labs Private Limited"}, {"investments": 0, "address": "2 HARE STREET KOLKATA WB 700001 IN", "rounds": 0, "location": {"latitude": 22.5712751, "longitude": 88.3467229}, "name": " Bhatkawa Tea Industries Limited"}, {"investments": 0, "address": "No. 641", "rounds": 0, "location": {"latitude": 12.9106561, "longitude": 77.6225757}, "name": " Flashdoor Internet Services Private Limited"}, {"investments": 0, "address": "15", "rounds": 0, "location": {"latitude": 28.5597298, "longitude": 77.2127388}, "name": " Manak Waste Management Private Limited"}, {"investments": 0, "address": "985/5 SAMRU BAUGH BHIWANDI Thane MH 421302 IN", "rounds": 0, "location": {"latitude": 19.2973892, "longitude": 73.0476162}, "name": " Omnikart Engineering Private Limited"}, {"investments": 0, "address": "428 SECTOR 44 A CHANDIGARH Chandigarh CH 160036 IN", "rounds": 0, "location": {"latitude": 30.7135646, "longitude": 76.7530761}, "name": " Tapcibo Online Solutions Private Limited"}, {"investments": 0, "address": "1736A/126", "rounds": 0, "location": {"latitude": 28.6774486, "longitude": 77.1646932}, "name": " S.B. Webtech Private Limited"}, {"investments": 0, "address": "648", "rounds": 0, "location": {"latitude": 28.6374969, "longitude": 77.2836698}, "name": " Ido Sport Private Limited."}, {"investments": 0, "address": "GOLDEN SQUARE", "rounds": 0, "location": {"latitude": 12.93638, "longitude": 77.626631}, "name": " Suphalaam Technologies Private Limited"}, {"investments": 0, "address": "B 503", "rounds": 0, "location": {"latitude": 19.120103, "longitude": 72.9120507}, "name": " Igrenenergi Technologies Private Limited"}, {"investments": 0, "address": "PLOT NO.2", "rounds": 0, "location": {"latitude": 8.5603775, "longitude": 76.8811941}, "name": " Madmart Services Private Limited"}, {"investments": 0, "address": "Suite No. 650", "rounds": 0, "location": {"latitude": 43.6503354, "longitude": -79.38078639999999}, "name": " New India Investment Corporation"}, {"investments": 0, "address": "319", "rounds": 0, "location": {"latitude": 18.9956086, "longitude": 72.82726869999999}, "name": " Ping Digital Broadcast Private Limited"}, {"investments": 0, "address": "38/1", "rounds": 0, "location": {"latitude": 27.1871977, "longitude": 78.00740859999999}, "name": " Onspon Services Private Limited"}, {"investments": 0, "address": "FLAT NO. 209", "rounds": 0, "location": {"latitude": 22.7255513, "longitude": 75.89346809999999}, "name": " Avps Transort Private Limited"}, {"investments": 0, "address": "DG-III/113 MIG FLATS VIKAS PURI NEW DELHI South West Delhi DL 110018 IN", "rounds": 0, "location": {"latitude": 28.6365964, "longitude": 77.0666525}, "name": " Truelancer Internet Private Limited"}, {"investments": 0, "address": "9/13 Bahar A", "rounds": 0, "location": {"latitude": 17.3491931, "longitude": 78.5710534}, "name": " Endless Robotics Private Limited"}, {"investments": 0, "address": "767 PANCHWATI COLONY A.B. ROAD", "rounds": 0, "location": {"latitude": 22.7258984, "longitude": 75.88738900000001}, "name": " Instacar Technologies Private Limited"}, {"investments": 0, "address": "2/12", "rounds": 0, "location": {"latitude": 28.540281, "longitude": 77.208429}, "name": " Quickli Technologies Private Limited"}, {"investments": 0, "address": "8-2-293/82/A/773/1", "rounds": 0, "location": {"latitude": 17.424497, "longitude": 78.451038}, "name": " Yupptv India Private Limited"}, {"investments": 0, "address": "48", "rounds": 0, "location": {"latitude": 12.9373626, "longitude": 77.57180939999999}, "name": " Tracxn Technologies Private Limited"}, {"investments": 0, "address": "A 1/1", "rounds": 0, "location": {"latitude": 18.5655805, "longitude": 73.80504069999999}, "name": " Campus Diaries Media And Communications Private Limited"}, {"investments": 0, "address": "115", "rounds": 0, "location": {"latitude": 28.6569117, "longitude": 77.3081546}, "name": " Wrs Info India Private Limited"}, {"investments": 0, "address": "Golden Square", "rounds": 0, "location": {"latitude": 12.97064, "longitude": 77.597337}, "name": " Impact Analytics India Private Limited"}, {"investments": 0, "address": "No 6", "rounds": 0, "location": {"latitude": 12.967637, "longitude": 77.653368}, "name": " Belong Technologies India Private Limited"}, {"investments": 0, "address": "No. 32", "rounds": 0, "location": {"latitude": 12.941984, "longitude": 77.623097}, "name": " Buyhatke Internet Private Limited"}, {"investments": 0, "address": "U 1 802 PLOT NO 2B VAIBHAV KHAND INDRAPURAM GHAZIABAD Ghaziabad UP 201010 IN", "rounds": 0, "location": {"latitude": 28.6361257, "longitude": 77.3646041}, "name": " Sidqam Technologies Private Limited"}, {"investments": 0, "address": "# 151 3rd floor Moksha Mansion Sarjapur Main Road 1st Block Koramangala Bengaluru Bangalore KA 560034 IN", "rounds": 0, "location": {"latitude": 12.925515, "longitude": 77.63615399999999}, "name": " Camden Town Technologies Private Limited"}, {"investments": 0, "address": "203", "rounds": 0, "location": {"latitude": 28.4657364, "longitude": 77.083787}, "name": " Star Car Care Solutions Private Limited"}, {"investments": 0, "address": "E-7/88 LALA LAJPAT RAI SOCIETY ARERA COLONY BHOPAL MP 462016 IN", "rounds": 0, "location": {"latitude": 23.2033786, "longitude": 77.4369413}, "name": " Sahayog Clean Milk Private Limited"}, {"investments": 0, "address": "PLOT NO. D-35", "rounds": 0, "location": {"latitude": 17.3896238, "longitude": 78.4712469}, "name": " Aayuv Technologies Private Limited"}, {"investments": 0, "address": "C/O GFIN Corporate Service Limited", "rounds": 0, "location": {"latitude": -20.243765, "longitude": 57.493056}, "name": " GHI Holdings"}, {"investments": 0, "address": "B7 PARSAN APARTMENT", "rounds": 0, "location": {"latitude": 10.9863544, "longitude": 77.0008916}, "name": " Shortails Technology Private Limited"}, {"investments": 0, "address": "259 E-Space Nirvana Country Sector - 50 Gurgaon Gurgaon HR 122018 IN", "rounds": 0, "location": {"latitude": 28.4135359, "longitude": 77.06580079999999}, "name": " Primemover Mobility Technologies Private Limited"}, {"investments": 0, "address": "C-1/14", "rounds": 0, "location": {"latitude": 28.5472945, "longitude": 77.19808809999999}, "name": " Ad Victoriam Ventures Private Limited"}, {"investments": 0, "address": "140", "rounds": 0, "location": {"latitude": 26.877156, "longitude": 75.7732154}, "name": " Neuroequilibrium Diagnostic Systems Private Limited"}, {"investments": 0, "address": "NO. 5097", "rounds": 0, "location": {"latitude": 12.991154, "longitude": 77.728662}, "name": " Urbanpiper Technology Private Limited"}, {"investments": 0, "address": "692", "rounds": 0, "location": {"latitude": 12.9235604, "longitude": 77.5848446}, "name": " Addresshealth Solutions India Private Limited"}, {"investments": 0, "address": "26/13", "rounds": 0, "location": {"latitude": 28.6399034, "longitude": 77.1837091}, "name": " Supath Healthcare Services Private Limited"}, {"investments": 0, "address": "Office no 605", "rounds": 0, "location": {"latitude": 19.1722732, "longitude": 72.9413947}, "name": " Green India Building Systems & Services Private Limited"}, {"investments": 0, "address": "57/49-B BLOCK SHYAM NAGAR KANPUR Kanpur UP 208004 IN", "rounds": 0, "location": {"latitude": 26.4080866, "longitude": 80.36602560000001}, "name": " Waah Taxis Private Limited"}, {"investments": 0, "address": "138", "rounds": 0, "location": {"latitude": 28.5463881, "longitude": 77.2537246}, "name": " Hd Technology Private Limited"}, {"investments": 0, "address": "PS Peninsula", "rounds": 0, "location": {"latitude": 22.5402292, "longitude": 88.3806122}, "name": " Augment Ventures"}, {"investments": 0, "address": "104 Vasan Udyog Bhavan", "rounds": 0, "location": {"latitude": 18.9937219, "longitude": 72.8258377}, "name": " FSN E-Commerce Ventures Private Limited"}, {"investments": 0, "address": "547", "rounds": 0, "location": {"latitude": 28.5314271, "longitude": 77.24947639999999}, "name": " Eko India Financial Services Private Limited"}, {"investments": 0, "address": "Shree Sawan Knowledge Park", "rounds": 0, "location": {"latitude": 19.061806, "longitude": 73.01984900000001}, "name": " Fino Paytech Limited"}, {"investments": 0, "address": "B/701", "rounds": 0, "location": {"latitude": 19.1192615, "longitude": 72.91075860000001}, "name": " Origa Renting Private Limited"}, {"investments": 0, "address": "M-140", "rounds": 0, "location": {"latitude": 28.5497805, "longitude": 77.23679589999999}, "name": " Rategain Travel Technologies Private Limited"}, {"investments": 0, "address": "219 Pink City Towers Bani Park JAIPUR RJ 302016 IN", "rounds": 0, "location": {"latitude": 26.931934, "longitude": 75.79878049999999}, "name": " Logic Roots Private Limited"}, {"investments": 0, "address": "25A", "rounds": 0, "location": {"latitude": 12.9855744, "longitude": 77.5958347}, "name": " Nitesh Industries Private Limited"}, {"investments": 0, "address": "72 &73", "rounds": 0, "location": {"latitude": 12.9555775, "longitude": 77.637092}, "name": " Boost Enterprises India Private Limited"}, {"investments": 0, "address": "OLD NO.19", "rounds": 0, "location": {"latitude": 13.0594726, "longitude": 80.24759259999999}, "name": " Utoo Cabs Limited"}, {"investments": 0, "address": "S-21", "rounds": 0, "location": {"latitude": 28.540079, "longitude": 77.271417}, "name": " Images Multimedia Private Limited"}, {"investments": 0, "address": "G - 186 Naraina Vihar New Delhi DL 110028 IN", "rounds": 0, "location": {"latitude": 28.62911, "longitude": 77.139167}, "name": " Nayi Disha Studios Private Limited"}, {"investments": 0, "address": "H NO. 6961/3", "rounds": 0, "location": {"latitude": 28.6473748, "longitude": 77.2109109}, "name": " Leaf Innovation Private Limited"}, {"investments": 0, "address": "First Floor", "rounds": 0, "location": {"latitude": 28.5471889, "longitude": 77.250802}, "name": " One 97 Communications Limited"}, {"investments": 0, "address": "51 GOLDHILL PLAZA #07-10/11 SINGAPORE 308900", "rounds": 0, "location": {"latitude": 1.3181315, "longitude": 103.8428729}, "name": " Letsventure Online Pte Ltd"}, {"investments": 0, "address": "SR-31", "rounds": 0, "location": {"latitude": 28.4916769, "longitude": 77.1077344}, "name": " Fairassets Technologies India Private Limited"}, {"investments": 0, "address": "LEVEL 2", "rounds": 0, "location": {"latitude": 12.9606276, "longitude": 80.2141244}, "name": " Hitachi Payment Services Private Limited"}, {"investments": 0, "address": "Ground floor", "rounds": 0, "location": {"latitude": 19.120425, "longitude": 72.8632569}, "name": " Transerv Private Limited"}, {"investments": 0, "address": "46A", "rounds": 0, "location": {"latitude": 22.5510095, "longitude": 88.3557002}, "name": " Nomisma Mobile Solutions Private Limited"}, {"investments": 0, "address": "596/1 4th Block", "rounds": 0, "location": {"latitude": 12.9293953, "longitude": 77.6220999}, "name": " Tablehero Technologies Private Limited"}, {"investments": 0, "address": "Edelweiss House", "rounds": 0, "location": {"latitude": 19.0703493, "longitude": 72.8632695}, "name": " Edelweiss Finance & Investments Limited"}, {"investments": 0, "address": "133B", "rounds": 0, "location": {"latitude": 22.5158216, "longitude": 88.3575761}, "name": " Samvidhi Projects Llp"}, {"investments": 0, "address": "NO 296", "rounds": 0, "location": {"latitude": 13.030586, "longitude": 77.68376119999999}, "name": " Finnovation Tech Solutions Private Limited"}, {"investments": 0, "address": "C-126A", "rounds": 0, "location": {"latitude": 28.473254, "longitude": 77.04433399999999}, "name": " Swajal Water Private Limited"}, {"investments": 0, "address": "5th Floor", "rounds": 0, "location": {"latitude": -20.2411651, "longitude": 57.496503}, "name": " Accel India II (Mauritius) Limited"}, {"investments": 0, "address": "First Floor", "rounds": 0, "location": {"latitude": 28.548417, "longitude": 77.27136019999999}, "name": " Jasper Infotech Private Limited"}, {"investments": 0, "address": "A-157", "rounds": 0, "location": {"latitude": 28.5767514, "longitude": 77.2318107}, "name": " Indulge Beverages Private Limited"}, {"investments": 0, "address": "PTI Building", "rounds": 0, "location": {"latitude": 22.5758778, "longitude": 88.4345743}, "name": " Arohan Financial Services Private Limited"}, {"investments": 0, "address": "KB-160 Kavinagar Ghaziabad Ghaziabad UP 201002 IN", "rounds": 0, "location": {"latitude": 28.6659749, "longitude": 77.4446986}, "name": " Agile Parking Solutions Private Limited"}, {"investments": 0, "address": "607 ROHIT HOUSE", "rounds": 0, "location": {"latitude": 28.627978, "longitude": 77.22523799999999}, "name": " Delite Infrastructure Private Limited"}, {"investments": 0, "address": "1 CROOKED LANE KOLKATA WB 700069 IN", "rounds": 0, "location": {"latitude": 22.5671987, "longitude": 88.3510816}, "name": " Sivpl Products Private Limited"}, {"investments": 0, "address": "734", "rounds": 0, "location": {"latitude": 12.909204, "longitude": 77.640074}, "name": " Loanzen Technologies Private Limited"}, {"investments": 0, "address": "R-13 SECOND FLOOR", "rounds": 0, "location": {"latitude": 28.6630642, "longitude": 77.27179439999999}, "name": " 8 Finatics Mobile Private Limited"}, {"investments": 0, "address": "2275A", "rounds": 0, "location": {"latitude": 12.912458, "longitude": 77.646303}, "name": " Buildwealth Technologies Private Limited"}, {"investments": 0, "address": "UNIT NO.314", "rounds": 0, "location": {"latitude": 19.1094934, "longitude": 72.8518479}, "name": " Invictus Insurance Broking Services Private Limited"}, {"investments": 0, "address": "NO. 2/570", "rounds": 0, "location": {"latitude": 12.9654366, "longitude": 80.19847949999999}, "name": " Brigge Technologies Private Limited"}, {"investments": 0, "address": "6th Floor", "rounds": 0, "location": {"latitude": 13.0141459, "longitude": 80.2114778}, "name": " Customer Analytics India Private Limited"}, {"investments": 0, "address": "590", "rounds": 0, "location": {"latitude": 12.9150156, "longitude": 77.62621899999999}, "name": " Oliveboard Comptech Private Limited"}, {"investments": 0, "address": "2125", "rounds": 0, "location": {"latitude": 28.5119564, "longitude": 77.1663528}, "name": " Phonon Solutions Private Limited"}, {"investments": 0, "address": "F 2/201", "rounds": 0, "location": {"latitude": 26.8971719, "longitude": 75.7355178}, "name": " Gbs Travel & Foodtech Private Limited"}, {"investments": 0, "address": "302", "rounds": 0, "location": {"latitude": 12.8836846, "longitude": 80.1999289}, "name": " Piqube Analytics Private Limited"}, {"investments": 0, "address": "409", "rounds": 0, "location": {"latitude": 28.4546071, "longitude": 77.050466}, "name": " Quartz Business Media India Private Limited"}, {"investments": 0, "address": "IDEAL PLAZA", "rounds": 0, "location": {"latitude": 22.5391859, "longitude": 88.3542944}, "name": " Lansdowne Investments Private Limited"}, {"investments": 0, "address": "E 47", "rounds": 0, "location": {"latitude": 28.5227894, "longitude": 77.2147492}, "name": " Senbonzakura Consultancy Private Limited"}, {"investments": 0, "address": "NO: 2966", "rounds": 0, "location": {"latitude": 12.96964, "longitude": 77.643535}, "name": " Scripbox.Com India Private Limited"}, {"investments": 0, "address": "94", "rounds": 0, "location": {"latitude": 19.0977625, "longitude": 72.9168266}, "name": " Arthashastra Fintech Private Limited"}, {"investments": 0, "address": "No. 554", "rounds": 0, "location": {"latitude": 12.9073769, "longitude": 77.6381304}, "name": " Celerix Infotech Private Limited"}, {"investments": 0, "address": "P N 4", "rounds": 0, "location": {"latitude": 26.8437601, "longitude": 75.81753929999999}, "name": " Seedlogix Resources India Private Limited"}, {"investments": 0, "address": "HOUSE No.-B-9012 Prateek The Royal Cliff Crossing Republik Ghaziabad Ghaziabad UP 201016 IN", "rounds": 0, "location": {"latitude": 28.6254967, "longitude": 77.4385084}, "name": " Rnvp Technology Private Limited"}, {"investments": 0, "address": "Queens Paradise", "rounds": 0, "location": {"latitude": 12.9843347, "longitude": 77.5982856}, "name": " Finwizard Technology Private Limited"}, {"investments": 0, "address": "401C", "rounds": 0, "location": {"latitude": 28.4341423, "longitude": 77.1033309}, "name": " Yellow Brick Road Digital Marketing Private Limited"}, {"investments": 0, "address": "1-7-15/8 Habsiguda Hyderabad TG 500079 IN", "rounds": 0, "location": {"latitude": 17.38909, "longitude": 78.49013300000001}, "name": " Cruxio Labs Private Limited"}, {"investments": 0, "address": "HOUSE NO 413 SECTOR-31 GURAGON Gurgaon HR 122001 IN", "rounds": 0, "location": {"latitude": 28.45219, "longitude": 77.049346}, "name": " Sekhmet Technologies Private Limited"}, {"investments": 0, "address": "#L-176", "rounds": 0, "location": {"latitude": 12.9158153, "longitude": 77.6318877}, "name": " Zenparent Solutions Private Limited"}, {"investments": 0, "address": "S M TOWER", "rounds": 0, "location": {"latitude": 12.9629467, "longitude": 77.6385779}, "name": " Sarvaloka Services-On-Call Private Limited"}, {"investments": 0, "address": "390 A", "rounds": 0, "location": {"latitude": 22.5046389, "longitude": 88.3671806}, "name": " Lucideus Tech Private Limited"}, {"investments": 0, "address": "Suite 909", "rounds": 0, "location": {"latitude": 28.6299715, "longitude": 77.08075600000001}, "name": " Perspectful Advisory Services Private Limited"}, {"investments": 0, "address": "IFS Court", "rounds": 0, "location": {"latitude": -20.242499, "longitude": 57.49564899999999}, "name": " ON Mauritius"}, {"investments": 0, "address": "8-2-269/S/52", "rounds": 0, "location": {"latitude": 17.4284031, "longitude": 78.43266919999999}, "name": " Seed Edu. Corp. (India) Private Limited"}, {"investments": 0, "address": "IDEAL PLAZA", "rounds": 0, "location": {"latitude": 22.5389539, "longitude": 88.35421269999999}, "name": " Dalmia Investmart Private Limited"}, {"investments": 0, "address": "503", "rounds": 0, "location": {"latitude": 19.0063699, "longitude": 72.8331864}, "name": " Neogrowth Credit Private Limited"}, {"investments": 0, "address": "431 Nilgiri Apartments Alaknanda New Delhi DELHI New Delhi DL 110019 IN", "rounds": 0, "location": {"latitude": 28.527874, "longitude": 77.2504416}, "name": " Tripoto Travel Private Limited"}, {"investments": 0, "address": "E-6", "rounds": 0, "location": {"latitude": 28.5782157, "longitude": 77.196561}, "name": " Ofb Tech Private Limited"}, {"investments": 0, "address": "C-5", "rounds": 0, "location": {"latitude": 28.5679593, "longitude": 77.23754}, "name": " Pasta Lifestyle Solutions Private Limited"}, {"investments": 0, "address": "No. 319/1", "rounds": 0, "location": {"latitude": 12.9054507, "longitude": 77.62678489999999}, "name": " Moonshots Internet Private Limited"}, {"investments": 0, "address": "90/31B FIRST FLOOR MALVIYA NAGAR NEW DELHI South Delhi DL 110017 IN", "rounds": 0, "location": {"latitude": 28.536472, "longitude": 77.223083}, "name": " Leap Learning Solutions Private Limited"}, {"investments": 0, "address": "F-702", "rounds": 0, "location": {"latitude": 18.5934479, "longitude": 73.79584489999999}, "name": " Makkajai Edu Tech Private Limited"}, {"investments": 0, "address": "Lange Gasse 76/18", "rounds": 0, "location": {"latitude": 48.2143976, "longitude": 16.3512012}, "name": " ChatGrape GmbH"}, {"investments": 0, "address": "2nd Floor", "rounds": 0, "location": {"latitude": 12.9076628, "longitude": 77.6433824}, "name": " Gapoon Online Consumer Services Private Limited"}, {"investments": 0, "address": "405-406", "rounds": 0, "location": {"latitude": 28.4684203, "longitude": 77.08308099999999}, "name": " Thinklink Supply Chain Services Private Limited"}, {"investments": 0, "address": "C-4", "rounds": 0, "location": {"latitude": 28.5462079, "longitude": 77.19664259999999}, "name": " Huddletech Services Private Limited"}, {"investments": 0, "address": "Flat No. 1201-C", "rounds": 0, "location": {"latitude": 28.6286194, "longitude": 77.2228425}, "name": " Blue Jay Finlease Limited"}, {"investments": 0, "address": "325", "rounds": 0, "location": {"latitude": 28.5270983, "longitude": 77.2201272}, "name": " 42Company India Private Limited"}, {"investments": 0, "address": "140/2A NETAJI SUBHAS CHANDRA BOSE ROAD KOLKATA Kolkata WB 700040 IN", "rounds": 0, "location": {"latitude": 22.4876938, "longitude": 88.350433}, "name": " Labsense Technology Services Private Limited"}, {"investments": 0, "address": "8th Floor", "rounds": 0, "location": {"latitude": 18.9263029, "longitude": 72.82103699999999}, "name": " Degustibus Hospitality Private Limited"}, {"investments": 0, "address": "J 1403", "rounds": 0, "location": {"latitude": 19.1192432, "longitude": 72.8940343}, "name": " Bloomskart Retail Private Limited"}, {"investments": 0, "address": "PD Block", "rounds": 0, "location": {"latitude": 28.6985788, "longitude": 77.1459998}, "name": " Ideope Media Private Limited"}, {"investments": 0, "address": "144", "rounds": 0, "location": {"latitude": 28.40682, "longitude": 77.042137}, "name": " Tripbaaz Technologies Private Limited"}, {"investments": 0, "address": "E-1/A", "rounds": 0, "location": {"latitude": 28.5998608, "longitude": 77.1643376}, "name": " Advergame Technologies Private Limited"}, {"investments": 0, "address": "D-1/38", "rounds": 0, "location": {"latitude": 28.6168288, "longitude": 77.03674699999999}, "name": " Real Time Networks Private Limited"}, {"investments": 0, "address": "Flat No. 314", "rounds": 0, "location": {"latitude": 28.5387973, "longitude": 77.2824464}, "name": " Infinity Assurance Solutions Private Limited"}, {"investments": 0, "address": "W-123", "rounds": 0, "location": {"latitude": 28.5386716, "longitude": 77.2398654}, "name": " Lenskart Solutions Private Limited"}, {"investments": 0, "address": "B - 201 & B - 701", "rounds": 0, "location": {"latitude": 19.114411, "longitude": 73.01444099999999}, "name": " Logicserve Digital Private Limited"}, {"investments": 0, "address": "E-703 Adarsha Rhytham Apt Panduranga Nagar", "rounds": 0, "location": {"latitude": 12.8947305, "longitude": 77.5962277}, "name": " Condivision Solutions Private Limited"}, {"investments": 0, "address": "A 204", "rounds": 0, "location": {"latitude": 19.1113422, "longitude": 72.9083873}, "name": " Haygot Education Private Limited"}, {"investments": 0, "address": "# 531/144", "rounds": 0, "location": {"latitude": 12.923447, "longitude": 77.64710199999999}, "name": " Canvera Digital Technologies Private Limited"}, {"investments": 0, "address": "22-6-66", "rounds": 0, "location": {"latitude": 17.38909, "longitude": 78.49013300000001}, "name": " Grabonrent Internet Private Limited"}, {"investments": 0, "address": "3RD FLOOR", "rounds": 0, "location": {"latitude": 12.9049944, "longitude": 77.598687}, "name": " Neuroglia Health Private Limited"}, {"investments": 0, "address": "A-2", "rounds": 0, "location": {"latitude": 26.210086, "longitude": 78.200227}, "name": " Truckpapa E-Commerce Private Limited"}, {"investments": 0, "address": "BOOTH 160", "rounds": 0, "location": {"latitude": 30.6871811, "longitude": 76.73831369999999}, "name": " Comparometer Services Private Limited"}, {"investments": 0, "address": "No. 83", "rounds": 0, "location": {"latitude": 12.9188696, "longitude": 77.6120607}, "name": " Wotu Technologies Private Limited"}, {"investments": 0, "address": "no. 4/1", "rounds": 0, "location": {"latitude": 12.9939653, "longitude": 77.61464509999999}, "name": " Liquid Studios Private Limited"}, {"investments": 0, "address": "#16/1", "rounds": 0, "location": {"latitude": 12.9363137, "longitude": 77.6286174}, "name": " Itw Sport Plus Private Limited"}, {"investments": 0, "address": "172", "rounds": 0, "location": {"latitude": 28.5594422, "longitude": 77.2708664}, "name": " Omnichanneler Technologies Private Limited"}, {"investments": 0, "address": "D-8", "rounds": 0, "location": {"latitude": 18.5887148, "longitude": 73.8892851}, "name": " Mazkara Media Private Limited"}, {"investments": 0, "address": "1st floor", "rounds": 0, "location": {"latitude": 19.01509, "longitude": 72.825182}, "name": " Hopscotch Wholesale Trading Private Limited"}, {"investments": 0, "address": "C Wing", "rounds": 0, "location": {"latitude": 19.1147912, "longitude": 72.8936779}, "name": " Appsdaily Solutions Private Limited"}, {"investments": 0, "address": "D-1012 NEW FRIENDS COLONY NEW DELHI South Delhi DL 110025 IN", "rounds": 0, "location": {"latitude": 28.5674621, "longitude": 77.26913259999999}, "name": " Usekiwi Infolabs Private Limited"}, {"investments": 0, "address": "117/395", "rounds": 0, "location": {"latitude": 26.4819173, "longitude": 80.29011009999999}, "name": " Trident Analytical Solutions Private Limited"}, {"investments": 0, "address": "No. 260", "rounds": 0, "location": {"latitude": 12.9178996, "longitude": 77.5827588}, "name": " Cyclops Medtech Private Limited"}, {"investments": 0, "address": "693", "rounds": 0, "location": {"latitude": 30.7244293, "longitude": 76.7863979}, "name": " Angular Technologies Private Limited"}, {"investments": 0, "address": "ABHINAV ENCLAVE6-3-347/C/1 DWARAKAPURI COLONY", "rounds": 0, "location": {"latitude": 17.4248352, "longitude": 78.451928}, "name": " Paynear Solutions Private Limited"}, {"investments": 0, "address": "4TH FLOOR TOWER A", "rounds": 0, "location": {"latitude": -20.2481635, "longitude": 57.49303759999999}, "name": " HBM Private Equity India"}, {"investments": 0, "address": "S.B.-ONE", "rounds": 0, "location": {"latitude": 26.8692262, "longitude": 75.8080942}, "name": " Ntap Labs Private Limited"}, {"investments": 0, "address": "No.10", "rounds": 0, "location": {"latitude": 12.9631679, "longitude": 77.6583939}, "name": " Finbud Financial Services Private Limited"}, {"investments": 0, "address": "402", "rounds": 0, "location": {"latitude": 18.4712372, "longitude": 73.8895127}, "name": "ServD Tech Private Limited"}, {"investments": 0, "address": "C-2098", "rounds": 0, "location": {"latitude": 19.1146704, "longitude": 72.89419459999999}, "name": " Gijutsu Solutions Private Limited"}, {"investments": 0, "address": "HOUSE NO.103", "rounds": 0, "location": {"latitude": 12.8994726, "longitude": 77.650643}, "name": " Teritree Technologies Private Limited"}, {"investments": 0, "address": "803", "rounds": 0, "location": {"latitude": 23.038542, "longitude": 72.569847}, "name": " Alakmalak Technologies Private Limited"}, {"investments": 0, "address": "B-103 SECOND FLOOR PANCHSHEEL VIHAR MALVIYA NAGAR NEW DELHI South Delhi DL 110017 IN", "rounds": 0, "location": {"latitude": 28.5348708, "longitude": 77.2140826}, "name": " Cube26 Software Private Limited"}, {"investments": 0, "address": "Unit No. 301-306", "rounds": 0, "location": {"latitude": 28.4341423, "longitude": 77.1033309}, "name": " Digismart Digital Media Private Limited"}, {"investments": 0, "address": "IL & FS FINANCIAL CENTREPLOT NO C22 G BLOCK BANDRA KURLA COMPLEX BANDRA EAST MUMBAI MH 400051 IN", "rounds": 0, "location": {"latitude": 19.063343, "longitude": 72.860554}, "name": " Vistra Itcl (india) Limited"}, {"investments": 0, "address": "60B ORCHARD ROAD #06-18 THE ATRIUM @ ORCHARD SINGAPORE 238891", "rounds": 0, "location": {"latitude": 1.29976, "longitude": 103.8455131}, "name": " MacRitchie Investments Pte Ltd"}, {"investments": 0, "address": "C/O PARKWOOD LLC", "rounds": 0, "location": {"latitude": 41.5057651, "longitude": -81.6903669}, "name": " Foundation Investments of Ohio Ltd"}, {"investments": 0, "address": "3208/2", "rounds": 0, "location": {"latitude": 28.6831066, "longitude": 77.1361725}, "name": " Outbox Ventures Private Limited"}, {"investments": 0, "address": "B-402 ", "rounds": 0, "location": {"latitude": 19.1782368, "longitude": 72.8340245}, "name": " Ah Ventures India Private Limited"}, {"investments": 0, "address": "160-A SAINIK FARMS KHANPUR NEW DELHI DL 110062 IN", "rounds": 0, "location": {"latitude": 28.5017294, "longitude": 77.2093493}, "name": " Futuresoft (india) Private Limited"}, {"investments": 0, "address": "5A/1.TAKSHILA APPARTMENTS", "rounds": 0, "location": {"latitude": 19.1301719, "longitude": 72.86840649999999}, "name": " Quidich Innovation Labs Private Limited"}, {"investments": 0, "address": "13TH FLOOR", "rounds": 0, "location": {"latitude": -20.2424442, "longitude": 57.4884947}, "name": " Bravia Rent Alpha Holdings Limited"}, {"investments": 0, "address": "C/o Parkwood LLC", "rounds": 0, "location": {"latitude": 41.5057651, "longitude": -81.6903669}, "name": " Manbro P.E. IV LP"}, {"investments": 0, "address": "15-D", "rounds": 0, "location": {"latitude": 28.5578477, "longitude": 77.16415769999999}, "name": " Waterbridge Ventures I"}, {"investments": 0, "address": "244", "rounds": 0, "location": {"latitude": 12.9124507, "longitude": 77.6343342}, "name": " Tsepak Technologies Private Limited."}, {"investments": 0, "address": "LA CHAUSSEE STREET", "rounds": 0, "location": {"latitude": -20.1636209, "longitude": 57.5014035}, "name": " Unitus Seed Mauritius"}, {"investments": 0, "address": "7TH FLOOR", "rounds": 0, "location": {"latitude": 28.528602, "longitude": 77.219256}, "name": " Select Unicorn Llp"}, {"investments": 0, "address": "NO 48", "rounds": 0, "location": {"latitude": 12.9373626, "longitude": 77.57180939999999}, "name": " Emvito Technologies Private Limited"}, {"investments": 0, "address": "Plot No.90 Sector - 44 Gurgaon Gurgaon HR 122002 IN", "rounds": 0, "location": {"latitude": 28.448479, "longitude": 77.0758733}, "name": " Trucksfirst Services Private Limited"}, {"investments": 0, "address": "D-119", "rounds": 0, "location": {"latitude": 28.5583723, "longitude": 77.2387782}, "name": " Smile Multimedia Private Limited"}, {"investments": 0, "address": "401 RYLAND ST STE 200-A", "rounds": 0, "location": {"latitude": 39.5240257, "longitude": -119.806015}, "name": " DriveU Investment Funds LLC"}, {"investments": 0, "address": "NO 805", "rounds": 0, "location": {"latitude": 12.9711618, "longitude": 77.64328549999999}, "name": " Pratithi Investment Trust"}, {"investments": 0, "address": "4th Floor", "rounds": 0, "location": {"latitude": 18.5156714, "longitude": 73.92634009999999}, "name": " Clarion Technologies Private Limited"}, {"investments": 0, "address": "4th Floor", "rounds": 0, "location": {"latitude": -20.243199, "longitude": 57.496375}, "name": " Saama Capital Iii"}, {"investments": 0, "address": "U8", "rounds": 0, "location": {"latitude": 28.561802, "longitude": 77.192962}, "name": " Crudearea Web Private Limited"}, {"investments": 0, "address": "3/16", "rounds": 0, "location": {"latitude": 28.5779173, "longitude": 77.16936609999999}, "name": " Calabasas Ventures Private Limited"}, {"investments": 0, "address": "4th Floor", "rounds": 0, "location": {"latitude": 18.9986521, "longitude": 72.8246439}, "name": " Alpex Corporate Services And Merchandising Private Limited"}, {"investments": 0, "address": "PLOT NO 4 LUCKY INDUSTRIALESTATE UDYOG NAGAR GOREGOAN MUMBAI MH 400062 IN", "rounds": 0, "location": {"latitude": 19.1540536, "longitude": 72.8517076}, "name": " Project Automobiles (bombay) Private Limited"}, {"investments": 0, "address": "#9/3", "rounds": 0, "location": {"latitude": 12.9656906, "longitude": 77.6018338}, "name": " Unitus Seed Advisors Private Limited"}, {"investments": 0, "address": "G - Z ARIHANT BLDGAHMEDABAD STREET MASJID (EAST)", "rounds": 0, "location": {"latitude": 18.9509621, "longitude": 72.83993939999999}, "name": " Bhoruka Capital Limited"}, {"investments": 0, "address": "138 Market Street", "rounds": 0, "location": {"latitude": 1.2818847, "longitude": 103.8503034}, "name": " Sistema Asia Fund Pte Ltd"}, {"investments": 0, "address": "10 Anson Road ", "rounds": 0, "location": {"latitude": 1.2756998, "longitude": 103.8458098}, "name": " ConveGenius Global Solutions Pte Ltd"}, {"investments": 0, "address": "3786 Grove Avenue", "rounds": 0, "location": {"latitude": 37.4236905, "longitude": -122.1120311}, "name": " Saama Capital Us Advisors"}, {"investments": 0, "address": "51-57", "rounds": 0, "location": {"latitude": 18.9248887, "longitude": 72.82316039999999}, "name": " Nazara Technologies Private Limited"}, {"investments": 0, "address": "OPP HERO SHOWROOM", "rounds": 0, "location": {"latitude": 28.1966596, "longitude": 76.62364409999999}, "name": " Dinco Overseas"}, {"investments": 0, "address": "SURAJ PRAKASH BLDG86 SHANKAR GHANEKAR MARG PRABHADEVI MUMBAI MH 400025 IN", "rounds": 0, "location": {"latitude": 19.0146316, "longitude": 72.8307076}, "name": " Mohan Three Wheelers Private Limited"}, {"investments": 0, "address": "10 STEVIE COURT", "rounds": 0, "location": {"latitude": 37.5142654, "longitude": -121.920225}, "name": " The Hedge Family Revocable Trust"}, {"investments": 0, "address": "42", "rounds": 0, "location": {"latitude": 19.1386684, "longitude": 72.8668471}, "name": " India Quotient Investment Trust"}, {"investments": 0, "address": "No 28", "rounds": 0, "location": {"latitude": 12.9961833, "longitude": 77.55147}, "name": " Bro4U Online Services Private Limited"}, {"investments": 0, "address": "C 3-B PLOT NO. 49 SUNCITY SECTOR 54 GURGAON Gurgaon HR 122104 IN", "rounds": 0, "location": {"latitude": 28.4367159, "longitude": 77.108187}, "name": " Mconverge Ventures Llp"}, {"investments": 0, "address": "B-6/17", "rounds": 0, "location": {"latitude": 28.5597367, "longitude": 77.19900919999999}, "name": " Spank Management Services Private Limited"}, {"investments": 0, "address": "NO.20", "rounds": 0, "location": {"latitude": 13.0088794, "longitude": 77.5636371}, "name": " TRIPOD SOFTWARE SOLUTIONS PRIVATE LIMITED"}, {"investments": 0, "address": "No. 004", "rounds": 0, "location": {"latitude": 12.8882473, "longitude": 77.5915824}, "name": " KITCHNZA FOODS AND HOSPITALITY PRIVATE LIMITED"}, {"investments": 0, "address": "D-25/C1", "rounds": 0, "location": {"latitude": 28.567197, "longitude": 77.21610000000001}, "name": " Medhavi Professional Services Private Limited"}, {"investments": 0, "address": "C 3/35", "rounds": 0, "location": {"latitude": 28.729375, "longitude": 77.129114}, "name": " Rp2 Ventures Private Limited"}, {"investments": 0, "address": "PLOT NO.26", "rounds": 0, "location": {"latitude": 17.424497, "longitude": 78.451038}, "name": " Venkart Ecom Private Limited"}, {"investments": 0, "address": "#X902", "rounds": 0, "location": {"latitude": 12.9203309, "longitude": 77.68848179999999}, "name": " RETISENSE TECH INDIA PRIVATE LIMITED"}, {"investments": 0, "address": "C/O OCRA Limited level 2", "rounds": 0, "location": {"latitude": -20.161876, "longitude": 57.50574899999999}, "name": " Better World Technology Holdings"}, {"investments": 0, "address": "LAXMI 8-2-682", "rounds": 0, "location": {"latitude": 17.4076136, "longitude": 78.4402233}, "name": " Gar Financial Services Private Limited"}, {"investments": 0, "address": "E-98", "rounds": 0, "location": {"latitude": 28.5415675, "longitude": 77.239773}, "name": " Kulzy Media Private Limited"}, {"investments": 0, "address": "473/1", "rounds": 0, "location": {"latitude": 12.978889, "longitude": 77.6421699}, "name": " Xysec Labs Private Limited"}, {"investments": 0, "address": "NO. 92", "rounds": 0, "location": {"latitude": 13.0558488, "longitude": 80.1151199}, "name": " EVEGETAILING PRIVATE LIMITED"}, {"investments": 0, "address": "B-9 and 10", "rounds": 0, "location": {"latitude": 28.446088, "longitude": 77.043976}, "name": " NUVO LOGISTICS PRIVATE LIMITED"}, {"investments": 0, "address": "702", "rounds": 0, "location": {"latitude": 19.1243882, "longitude": 72.8495982}, "name": " NEEV KNOWLEDGE MANAGEMENT PRIVATE LIMITED"}, {"investments": 0, "address": "IFS COURT TWENTYEIGHT", "rounds": 0, "location": {"latitude": -20.242499, "longitude": 57.49564899999999}, "name": " Canaan VIII Mauritius"}, {"investments": 0, "address": "AG-I/57B", "rounds": 0, "location": {"latitude": 28.627054, "longitude": 77.066531}, "name": " Sai Webtel Technologies Private Limited"}, {"investments": 0, "address": "C/O INTERNATIONAL FINANCIAL SERVICES LIMITED", "rounds": 0, "location": {"latitude": -20.242499, "longitude": 57.49564899999999}, "name": " Epiphany Overseas Ventures"}, {"investments": 0, "address": "10A", "rounds": 0, "location": {"latitude": 28.5137542, "longitude": 77.158717}, "name": " Plus Capital Advisors Private Limited"}, {"investments": 0, "address": "209", "rounds": 0, "location": {"latitude": 28.6342746, "longitude": 77.3024215}, "name": " Healthstart India Private Limited"}, {"investments": 0, "address": "58", "rounds": 0, "location": {"latitude": 11.9346773, "longitude": 79.8315755}, "name": " Marcatus Qed (india) Private Limited"}, {"investments": 0, "address": "B-19 DEFENCE COLONY NEW DELHI DL 110024 IN", "rounds": 0, "location": {"latitude": 28.6696426, "longitude": 77.1439042}, "name": " Yukti Securities Private Limited"}, {"investments": 0, "address": "E 215", "rounds": 0, "location": {"latitude": 28.5867954, "longitude": 77.336449}, "name": " QUSTN TECHNOLOGIES PRIVATE LIMITED"}, {"investments": 0, "address": "A/406", "rounds": 0, "location": {"latitude": 19.146071, "longitude": 72.83593499999999}, "name": " Wsg Entertainment Llp"}, {"investments": 0, "address": "402", "rounds": 0, "location": {"latitude": 23.0474959, "longitude": 72.5276844}, "name": " INTERACTCRM SOLUTIONS PRIVATE LIMITED"}, {"investments": 0, "address": "17/21", "rounds": 0, "location": {"latitude": 12.9671505, "longitude": 77.60791189999999}, "name": " Relobridge Relocations Private Limited"}, {"investments": 0, "address": "D2", "rounds": 0, "location": {"latitude": 9.946067, "longitude": 76.3459058}, "name": " Konglo Ventures LLP"}, {"investments": 0, "address": "Prins", "rounds": 0, "location": {"latitude": 52.3477377, "longitude": 4.9205219}, "name": " Groupon Holdings B V"}, {"investments": 0, "address": "FLAT NO. 62D", "rounds": 0, "location": {"latitude": 28.7048867, "longitude": 77.1543404}, "name": " Orangut Labs Private Limited"}, {"investments": 0, "address": "600 W", "rounds": 0, "location": {"latitude": 41.8975185, "longitude": -87.64397799999999}, "name": " Groupon Inc."}, {"investments": 0, "address": "S-399 GREATER KAILASH-II NEW DELHI South Delhi DL 110048 IN", "rounds": 0, "location": {"latitude": 28.5321038, "longitude": 77.2445422}, "name": " VIPUL GOODSERVICE PRIVATE LIMITED"}, {"investments": 0, "address": "FLAT- 1401", "rounds": 0, "location": {"latitude": 28.5448319, "longitude": 77.3686907}, "name": " Instant Procurement Services Private Limited"}, {"investments": 0, "address": "C1803 Brigade Metropolis", "rounds": 0, "location": {"latitude": 12.9914357, "longitude": 77.7026972}, "name": " Discovery Info Labs Private Limited"}, {"investments": 0, "address": "2/1", "rounds": 0, "location": {"latitude": 12.9214204, "longitude": 77.57101089999999}, "name": " Green Enabled It Solutions Private Limited"}, {"investments": 0, "address": "365", "rounds": 0, "location": {"latitude": 12.9178207, "longitude": 77.6306298}, "name": " Protinus Fashion Networking Private Limited"}, {"investments": 0, "address": "A-444", "rounds": 0, "location": {"latitude": 19.0173329, "longitude": 73.0385446}, "name": " Glentrans Shipping & Logistics (I) Private Limited"}, {"investments": 0, "address": "M-70A FIRST FLOOR MALVIYA NAGAR DL 110017 IN", "rounds": 0, "location": {"latitude": 28.5374511, "longitude": 77.2151643}, "name": " DIGITZ SERVICES PRIVATE LIMITED"}, {"investments": 0, "address": "69/03", "rounds": 0, "location": {"latitude": 12.9419278, "longitude": 77.5740864}, "name": " Apn Recruitment Solutions Private Limited"}, {"investments": 0, "address": "C/o. CIM Corporate Services Ltd. Edith Cavell Street", "rounds": 0, "location": {"latitude": -20.1651285, "longitude": 57.5017119}, "name": " JS Capital (M) Limited"}, {"investments": 0, "address": "401", "rounds": 0, "location": {"latitude": 19.1187711, "longitude": 72.9131582}, "name": " Aegis Care Advisors Private Limited"}, {"investments": 0, "address": "RZF-390", "rounds": 0, "location": {"latitude": 28.5776725, "longitude": 77.085419}, "name": "929) Super Highway Labs Private Limited."}, {"investments": 0, "address": "20 MAXWELL ROAD #09-17 MAXWELL HOUSE SINGAPORE 069113", "rounds": 0, "location": {"latitude": 1.2792508, "longitude": 103.8447681}, "name": "932) Nazara Pte Ltd"}, {"investments": 0, "address": "3011", "rounds": 0, "location": {"latitude": 28.4384402, "longitude": 77.0631587}, "name": "Startup Buddy Services Private Limited"}, {"investments": 0, "address": "PLOT NO-1 SECTOR-42", "rounds": 0, "location": {"latitude": 28.4580423, "longitude": 77.10824439999999}, "name": "Urbanjoy E Services Private Limited"}, {"investments": 0, "address": "A-506", "rounds": 0, "location": {"latitude": 18.9813547, "longitude": 72.8386015}, "name": "Jobbie Services India Private Limited"}, {"investments": 0, "address": "6129/1", "rounds": 0, "location": {"latitude": 28.5268416, "longitude": 77.1488759}, "name": "Just4Kids Services Private Limited"}, {"investments": 0, "address": "G-9 Siddhartha Building", "rounds": 0, "location": {"latitude": 28.5481091, "longitude": 77.252055}, "name": "Printland Digital (India) Private Limited"},