[{"location": {"latitude": 1.29976, "longitude": 103.8455131}, "name": "MacRitchie Investments Pte Ltd", "address": "60B ORCHARD ROAD #06-18 THE ATRIUM @ ORCHARD SINGAPORE 238891"}, {"location": {"latitude": 41.5057651, "longitude": -81.6903669}, "name": "Foundation Investments of Ohio Ltd", "address": "C/O PARKWOOD LLC"}, {"location": {"latitude": 28.685121, "longitude": 77.1347868}, "name": "Outbox Ventures Private Limited", "address": "3208/2"}, {"location": {"latitude": 19.1782368, "longitude": 72.8340245}, "name": " Ah Ventures India Private Limited", "address": "B-402 "}, {"location": {"latitude": 28.5017294, "longitude": 77.2093493}, "name": " Futuresoft (india) Private Limited", "address": "160-A SAINIK FARMS KHANPUR NEW DELHI DL 110062 IN"}, {"location": {"latitude": 19.1301719, "longitude": 72.86840649999999}, "name": " Quidich Innovation Labs Private Limited", "address": "5A/1.TAKSHILA APPARTMENTS"}, {"location": {"latitude": -20.2424442, "longitude": 57.4884947}, "name": " Bravia Rent Alpha Holdings Limited", "address": "13TH FLOOR"}, {"location": {"latitude": 41.5057651, "longitude": -81.6903669}, "name": " Manbro P.E. IV LP", "address": "C/o Parkwood LLC"}, {"location": {"latitude": 28.5578463, "longitude": 77.1644245}, "name": " Waterbridge Ventures I", "address": "15-D"}, {"location": {"latitude": 12.9124507, "longitude": 77.6343342}, "name": " Tsepak Technologies Private Limited.", "address": "244"}, {"location": {"latitude": -20.1636209, "longitude": 57.5014035}, "name": " Unitus Seed Mauritius", "address": "LA CHAUSSEE STREET"}, {"location": {"latitude": 28.528602, "longitude": 77.219256}, "name": " Select Unicorn Llp", "address": "7TH FLOOR"}, {"location": {"latitude": 12.9373626, "longitude": 77.57180939999999}, "name": " Emvito Technologies Private Limited", "address": "NO 48"}, {"location": {"latitude": 28.448479, "longitude": 77.0758733}, "name": " Trucksfirst Services Private Limited", "address": "Plot No.90 Sector - 44 Gurgaon Gurgaon HR 122002 IN"}, {"location": {"latitude": 28.5583723, "longitude": 77.2387782}, "name": " Smile Multimedia Private Limited", "address": "D-119"}, {"location": {"latitude": 39.5240257, "longitude": -119.806015}, "name": " DriveU Investment Funds LLC", "address": "401 RYLAND ST STE 200-A"}, {"location": {"latitude": 12.9711618, "longitude": 77.64328549999999}, "name": " Pratithi Investment Trust", "address": "NO 805"}, {"location": {"latitude": 18.5156714, "longitude": 73.92634009999999}, "name": " Clarion Technologies Private Limited", "address": "4th Floor"}, {"location": {"latitude": -20.243199, "longitude": 57.496375}, "name": " Saama Capital Iii", "address": "4th Floor"}, {"location": {"latitude": 28.561802, "longitude": 77.192962}, "name": " Crudearea Web Private Limited", "address": "U8"}, {"location": {"latitude": 28.5779173, "longitude": 77.16936609999999}, "name": " Calabasas Ventures Private Limited", "address": "3/16"}, {"location": {"latitude": 18.9986521, "longitude": 72.8246439}, "name": " Alpex Corporate Services And Merchandising Private Limited", "address": "4th Floor"}, {"location": {"latitude": 19.1540536, "longitude": 72.8517076}, "name": " Project Automobiles (bombay) Private Limited", "address": "PLOT NO 4 LUCKY INDUSTRIALESTATE UDYOG NAGAR GOREGOAN MUMBAI MH 400062 IN"}, {"location": {"latitude": 12.9656906, "longitude": 77.6018338}, "name": " Unitus Seed Advisors Private Limited", "address": "#9/3"}, {"location": {"latitude": 18.9509621, "longitude": 72.83993939999999}, "name": " Bhoruka Capital Limited", "address": "G - Z ARIHANT BLDGAHMEDABAD STREET MASJID (EAST)"}, {"location": {"latitude": 1.2818847, "longitude": 103.8503034}, "name": " Sistema Asia Fund Pte Ltd", "address": "138 Market Street"}, {"location": {"latitude": 1.2756998, "longitude": 103.8458098}, "name": " ConveGenius Global Solutions Pte Ltd", "address": "10 Anson Road "}, {"location": {"latitude": 37.4236905, "longitude": -122.1120311}, "name": " Saama Capital Us Advisors", "address": "3786 Grove Avenue"}, {"location": {"latitude": 18.9248887, "longitude": 72.82316039999999}, "name": " Nazara Technologies Private Limited", "address": "51-57"}, {"location": {"latitude": 28.1966596, "longitude": 76.62364409999999}, "name": " Dinco Overseas", "address": "OPP HERO SHOWROOM"}, {"location": {"latitude": 19.0146316, "longitude": 72.8307076}, "name": " Mohan Three Wheelers Private Limited", "address": "SURAJ PRAKASH BLDG86 SHANKAR GHANEKAR MARG PRABHADEVI MUMBAI MH 400025 IN"}, {"location": {"latitude": 37.5142654, "longitude": -121.920225}, "name": " The Hedge Family Revocable Trust", "address": "10 STEVIE COURT"}, {"location": {"latitude": 19.1386684, "longitude": 72.8668471}, "name": " India Quotient Investment Trust", "address": "42"}, {"location": {"latitude": 12.9961833, "longitude": 77.55147}, "name": " Bro4U Online Services Private Limited", "address": "No 28"}, {"location": {"latitude": 28.4367159, "longitude": 77.108187}, "name": " Mconverge Ventures Llp", "address": "C 3-B PLOT NO. 49 SUNCITY SECTOR 54 GURGAON Gurgaon HR 122104 IN"}, {"location": {"latitude": 28.5597367, "longitude": 77.19900919999999}, "name": " Spank Management Services Private Limited", "address": "B-6/17"}, {"location": {"latitude": 13.0088794, "longitude": 77.5636371}, "name": " TRIPOD SOFTWARE SOLUTIONS PRIVATE LIMITED", "address": "NO.20"}, {"location": {"latitude": 12.8882473, "longitude": 77.5915824}, "name": "KITCHNZA FOODS AND HOSPITALITY PRIVATE LIMITED", "address": "No. 004"}, {"location": {"latitude": 28.567197, "longitude": 77.21610000000001}, "name": "Medhavi Professional Services Private Limited", "address": "D-25/C1"}, {"location": {"latitude": 28.729375, "longitude": 77.129114}, "name": "Rp2 Ventures Private Limited", "address": "C 3/35"}, {"location": {"latitude": 17.424497, "longitude": 78.451038}, "name": "Venkart Ecom Private Limited", "address": "PLOT NO.26"}, {"location": {"latitude": 12.9203309, "longitude": 77.68848179999999}, "name": "RETISENSE TECH INDIA PRIVATE LIMITED", "address": "#X902"}, {"location": {"latitude": -20.161876, "longitude": 57.50574899999999}, "name": "Better World Technology Holdings", "address": "C/O OCRA Limited level 2"}, {"location": {"latitude": 17.4076136, "longitude": 78.4402233}, "name": "Gar Financial Services Private Limited", "address": "LAXMI 8-2-682"}, {"location": {"latitude": 28.5415675, "longitude": 77.239773}, "name": "Kulzy Media Private Limited", "address": "E-98"}, {"location": {"latitude": 12.978889, "longitude": 77.6421699}, "name": "Xysec Labs Private Limited", "address": "473/1"}, {"location": {"latitude": 13.0558488, "longitude": 80.1151199}, "name": "EVEGETAILING PRIVATE LIMITED", "address": "NO. 92"}, {"location": {"latitude": 28.446088, "longitude": 77.043976}, "name": "NUVO LOGISTICS PRIVATE LIMITED", "address": "B-9 and 10"}, {"location": {"latitude": 19.1243882, "longitude": 72.8495982}, "name": "NEEV KNOWLEDGE MANAGEMENT PRIVATE LIMITED", "address": "702"}, {"location": {"latitude": -20.242499, "longitude": 57.49564899999999}, "name": "Canaan VIII Mauritius", "address": "IFS COURT TWENTYEIGHT"}, {"location": {"latitude": 28.627054, "longitude": 77.066531}, "name": "Sai Webtel Technologies Private Limited", "address": "AG-I/57B"}, {"location": {"latitude": -20.242499, "longitude": 57.49564899999999}, "name": "Epiphany Overseas Ventures", "address": "C/O INTERNATIONAL FINANCIAL SERVICES LIMITED"}, {"location": {"latitude": 28.5137542, "longitude": 77.158717}, "name": "Plus Capital Advisors Private Limited", "address": "10A"}, {"location": {"latitude": 28.6342746, "longitude": 77.3024215}, "name": "Healthstart India Private Limited", "address": "209"}, {"location": {"latitude": 11.9346773, "longitude": 79.8315755}, "name": "Marcatus Qed (india) Private Limited", "address": "58"}, {"location": {"latitude": 28.6696426, "longitude": 77.1439042}, "name": "Yukti Securities Private Limited", "address": "B-19 DEFENCE COLONY NEW DELHI DL 110024 IN"}, {"location": {"latitude": 28.5867954, "longitude": 77.336449}, "name": "QUSTN TECHNOLOGIES PRIVATE LIMITED", "address": "E 215"}, {"location": {"latitude": 19.146071, "longitude": 72.83593499999999}, "name": "Wsg Entertainment Llp", "address": "A/406"}, {"location": {"latitude": 23.0474959, "longitude": 72.5276844}, "name": "INTERACTCRM SOLUTIONS PRIVATE LIMITED", "address": "402"}, {"location": {"latitude": 12.9671505, "longitude": 77.60791189999999}, "name": "Relobridge Relocations Private Limited", "address": "17/21"}, {"location": {"latitude": 9.946067, "longitude": 76.3459058}, "name": "Konglo Ventures LLP", "address": "D2"}, {"location": {"latitude": 52.3477377, "longitude": 4.9205219}, "name": "Groupon Holdings B V", "address": "Prins"}, {"location": {"latitude": 28.7048867, "longitude": 77.1543404}, "name": "Orangut Labs Private Limited", "address": "FLAT NO. 62D"}, {"location": {"latitude": 41.8975185, "longitude": -87.64397799999999}, "name": " Groupon Inc.", "address": "600 W"}, {"location": {"latitude": 28.5321038, "longitude": 77.2445422}, "name": " VIPUL GOODSERVICE PRIVATE LIMITED", "address": "S-399 GREATER KAILASH-II NEW DELHI South Delhi DL 110048 IN"}, {"location": {"latitude": 28.5448319, "longitude": 77.3686907}, "name": " Instant Procurement Services Private Limited", "address": "FLAT- 1401"}, {"location": {"latitude": 12.9914357, "longitude": 77.7026972}, "name": " Discovery Info Labs Private Limited", "address": "C1803 Brigade Metropolis"}, {"location": {"latitude": 12.9214204, "longitude": 77.57101089999999}, "name": " Green Enabled It Solutions Private Limited", "address": "2/1"}, {"location": {"latitude": 12.9178207, "longitude": 77.6306298}, "name": " Protinus Fashion Networking Private Limited", "address": "365"}, {"location": {"latitude": 19.0173329, "longitude": 73.0385446}, "name": " Glentrans Shipping & Logistics (I) Private Limited", "address": "A-444"}, {"location": {"latitude": 28.5374511, "longitude": 77.2151643}, "name": " DIGITZ SERVICES PRIVATE LIMITED", "address": "M-70A FIRST FLOOR MALVIYA NAGAR DL 110017 IN"}, {"location": {"latitude": 12.9419278, "longitude": 77.5740864}, "name": " Apn Recruitment Solutions Private Limited", "address": "69/03"}, {"location": {"latitude": -20.1651285, "longitude": 57.5017119}, "name": " JS Capital (M) Limited", "address": "C/o. CIM Corporate Services Ltd. Edith Cavell Street"}, {"location": {"latitude": 19.1187711, "longitude": 72.9131582}, "name": " Aegis Care Advisors Private Limited", "address": "401"}, {"location": {"latitude": 28.5776725, "longitude": 77.085419}, "name": " Super Highway Labs Private Limited.", "address": "RZF-390"}, {"location": {"latitude": 1.2792508, "longitude": 103.8447681}, "name": " Nazara Pte Ltd", "address": "20 MAXWELL ROAD #09-17 MAXWELL HOUSE SINGAPORE 069113"}, {"location": {"latitude": 28.4384402, "longitude": 77.0631587}, "name": " Startup Buddy Services Private Limited", "address": "3011"}, {"location": {"latitude": 28.4580423, "longitude": 77.10824439999999}, "name": " Urbanjoy E Services Private Limited", "address": "PLOT NO-1 SECTOR-42"}, {"location": {"latitude": 18.9813547, "longitude": 72.8386015}, "name": " Jobbie Services India Private Limited", "address": "A-506"}, {"location": {"latitude": 28.5268416, "longitude": 77.1488759}, "name": " Just4Kids Services Private Limited", "address": "6129/1"}, {"location": {"latitude": 28.5481091, "longitude": 77.252055}, "name": " Printland Digital (India) Private Limited", "address": "G-9 Siddhartha Building"}, {"location": {"latitude": 19.0662653, "longitude": 72.88359489999999}, "name": " Pragmatix Services Private Limited", "address": "101"}, {"location": {"latitude": 18.961827, "longitude": 72.8018377}, "name": " Ignite Education Private Limited", "address": "20A Maheshwari Mansion 34 L Jagmohandas Marg"}, {"location": {"latitude": 13.0380012, "longitude": 80.160574}, "name": " Kobster E-Shop Private Limited", "address": "No 54/32 Mount Poonamallee Main Road St Thomas Mount Chennai Chennai TN 600016 IN"}, {"location": {"latitude": 18.5463286, "longitude": 73.903314}, "name": " Workapps Solutions Private Limited.", "address": "1st Floor"}, {"location": {"latitude": 28.538213, "longitude": 77.288562}, "name": " Mogli Labs (India) Private Limited", "address": "REGUS BUSINESS CENTRE (DELHI) PVT. LTD LEVEL-2"}, {"location": {"latitude": 13.0433089, "longitude": 80.2474222}, "name": " Eshakti.Com Private Limited", "address": "3rd Floor"}, {"location": {"latitude": 1.2792993, "longitude": 103.8498021}, "name": " Practo Pte. Ltd.", "address": "4 SHENTON WAY #15-01 SGX CENTRE II SINGAPORE 068807"}, {"location": {"latitude": 28.572164, "longitude": 77.26858299999999}, "name": " Betaout Technologies Private Limited", "address": "HOUSE NO. 37"}, {"location": {"latitude": 28.6331595, "longitude": 77.2226795}, "name": " Frame Techonology Marketing Services Private Limited", "address": "Barrack no. 17/1 Upper Anand Parbat New Delhi DL 110005 IN"}, {"location": {"latitude": 19.109978, "longitude": 72.8263551}, "name": " South Yarra Holdings", "address": "B 103"}, {"location": {"latitude": 28.5781487, "longitude": 77.1932399}, "name": " Sagacito Technologies Private Limited", "address": "W-129"}, {"location": {"latitude": 28.63938, "longitude": 77.208766}, "name": " Wedwise Events Private Limited", "address": "Office No.1"}, {"location": {"latitude": 12.9901463, "longitude": 80.24181449999999}, "name": " Airwood Aerostructures Private Limited", "address": "No.03 A2 Third Floor "}, {"location": {"latitude": 28.5421482, "longitude": 77.20528209999999}, "name": " Renomania India Private Limited", "address": "4/1"}, {"location": {"latitude": -20.2425071, "longitude": 57.4956465}, "name": " SCI Growth Investments II", "address": "IFS Court"}, {"location": {"latitude": 28.6446653, "longitude": 77.20340759999999}, "name": " Zobtree Ventures Private Limited", "address": "279 ANARKALI COMPLEX JHANDEWALAN EXTN NEW DELHI Central Delhi DL 110055 IN"}, {"location": {"latitude": 13.0089608, "longitude": 77.5657705}, "name": " Cimplyfive Corporate Secretarial Services Private Limited", "address": "NO. 42"}, {"location": {"latitude": 12.9692122, "longitude": 77.6412849}, "name": " Instavans Logistics Private Limited", "address": "No.307"}, {"location": {"latitude": 25.4456821, "longitude": 81.8689062}, "name": " Inweone Technologies Private Limited", "address": "160"}, {"location": {"latitude": 22.7275516, "longitude": 75.8834859}, "name": " Zootout Advertising Private Limited", "address": "304 KRISHNA HARMONY 14/2 NEW PALASIA INDORE MP 452001 IN"}, {"location": {"latitude": 13.387036, "longitude": 74.73759299999999}, "name": " Robosoft Technologies Private Limited", "address": "217"}, {"location": {"latitude": 26.8549447, "longitude": 75.8250475}, "name": " Next Door Learning Solutions Private Limited", "address": "OFFICE NO-322"}, {"location": {"latitude": 13.0033595, "longitude": 77.6196377}, "name": " Axilly Labs Private Limited", "address": "Flat No 002"}, {"location": {"latitude": 17.4401303, "longitude": 78.3985314}, "name": " Darwinbox Digital Solutions Private Limited", "address": "Plot No.17"}, {"location": {"latitude": 28.6410123, "longitude": 77.2460469}, "name": " Kromozones Software Private Limited", "address": "2690B"}, {"location": {"latitude": 28.585412, "longitude": 77.2434461}, "name": " Talentiser Private Limited", "address": "24/6 S/F PANT NAGAR"}, {"location": {"latitude": 12.9352429, "longitude": 77.6237055}, "name": " Futuron Systems Private Limited", "address": "2nd and 3rd floor"}, {"location": {"latitude": 28.557127, "longitude": 77.205283}, "name": " Goldvip Technology Solutions Private Limited", "address": "B9"}, {"location": {"latitude": 25.1848959, "longitude": 75.908221}, "name": " Innoplexus Consulting Services Private Limited", "address": "FLAT NO. A 2/901"}, {"location": {"latitude": 28.6554256, "longitude": 77.1219618}, "name": " Taxmann Education Private Limited", "address": "2/22"}, {"location": {"latitude": 13.0470133, "longitude": 80.26237270000001}, "name": " Cherrytin Online Private Limited", "address": "NO.14 "}, {"location": {"latitude": 39.7545377, "longitude": -75.62730599999999}, "name": " Vanguard International Growth Fund through Vanguard World Fund", "address": "2711 Centerville Rd"}, {"location": {"latitude": 28.7246973, "longitude": 77.1311382}, "name": " Casa2 Stays Private Limited", "address": "B-1/102"}, {"location": {"latitude": 28.652072, "longitude": 77.410178}, "name": " Jetstartus Technology Private Limited", "address": "Plot No M-20"}, {"location": {"latitude": 13.0131968, "longitude": 77.5762967}, "name": " Tricog Health Services Private Limited", "address": "94H"}, {"location": {"latitude": 19.116994, "longitude": 72.874544}, "name": " Nodd Ventures Private Limited", "address": "D/304"}, {"location": {"latitude": 18.5863132, "longitude": 73.73863779999999}, "name": " Orange Etokri India Private Limited", "address": "138/1 CITY CENTER HINJEWADI PUNE Pune MH 411057 IN"}, {"location": {"latitude": 28.6361113, "longitude": 77.29301}, "name": " M/S Share India Commodity Brokers (P) Limited", "address": "14"}, {"location": {"latitude": 18.9544302, "longitude": 72.80273319999999}, "name": " Rab Enterprises India Pvt Ltd", "address": "12-13/ D IL Palazzo Little"}, {"location": {"latitude": 12.9246477, "longitude": 77.6385854}, "name": " 63Ideas Infolabs Private Limited", "address": "Site No.9"}, {"location": {"latitude": 12.9213943, "longitude": 77.66495669999999}, "name": " Artoo It Solutions Private Limited", "address": "B-104"}, {"location": {"latitude": 12.9755594, "longitude": 77.6359786}, "name": " Knolskape Solutions Private Limited.", "address": "#1314"}, {"location": {"latitude": -20.2411651, "longitude": 57.496503}, "name": " Sequioa Capital India Investments Holdings III", "address": "5th floor"}, {"location": {"latitude": 28.5519236, "longitude": 77.26876419999999}, "name": " C.E. Info Systems Private Limited", "address": "68"}, {"location": {"latitude": 26.8993963, "longitude": 75.8267549}, "name": " Girnar Software Private Limited", "address": "GIRNAR 21"}, {"location": {"latitude": 19.076412, "longitude": 72.8649327}, "name": " Andromeda Sales And Distribution Private Limited", "address": "126"}, {"location": {"latitude": 38.8026097, "longitude": -116.419389}, "name": " Chargifi Inc", "address": "State of Nevada USA"}, {"location": {"latitude": 28.536472, "longitude": 77.223083}, "name": " Retention Nine Technologies Private Limited", "address": "90/31B"}, {"location": {"latitude": 53.3414328, "longitude": -1.2966629}, "name": " Chargifi Limited", "address": "England and Wales"}, {"location": {"latitude": 12.9161226, "longitude": 77.5832312}, "name": " Catamaran Ventures Llp", "address": "#703"}, {"location": {"latitude": 12.938922, "longitude": 77.609537}, "name": " Razorpay Software Private Limited", "address": "1st Floor"}, {"location": {"latitude": 12.9161362, "longitude": 77.5838412}, "name": " Catamaran Advisors Llp", "address": "No. 703"}, {"location": {"latitude": 12.9711857, "longitude": 77.6367389}, "name": " Hummingbill Technologies (India) Private Limited", "address": "39/1"}, {"location": {"latitude": 39.7545377, "longitude": -75.62730599999999}, "name": " Vanguard Variable Insurance Funds", "address": "2711 Centerville Rd"}, {"location": {"latitude": 13.0117806, "longitude": 80.2192298}, "name": " Veritas Finance Private Limited", "address": "S 15 2nd Floor Economist House"}, {"location": {"latitude": 26.9154346, "longitude": 75.8064996}, "name": " Winiin Taxscope Private Limited", "address": "203"}, {"location": {"latitude": 18.9959454, "longitude": 72.8158352}, "name": " Level Playingfield Private Limited", "address": "C 5-6 B-Wing"}, {"location": {"latitude": 12.9112223, "longitude": 77.6773217}, "name": " Interview Master Technology Solutions Private Limited", "address": "No. 818/1"}, {"location": {"latitude": 12.9121852, "longitude": 77.6355557}, "name": " Truweight Wellness Pvt.Ltd", "address": "No 18"}, {"location": {"latitude": 28.5423316, "longitude": 77.2279848}, "name": " Creative Living Solutions Private Limited", "address": "A 1/93"}, {"location": {"latitude": 17.448251, "longitude": 78.391823}, "name": " Wisdom It Services India Private Limited", "address": "PLOT NO.305"}, {"location": {"latitude": 28.7195155, "longitude": 77.1579531}, "name": " Eduposse Technologies Private Limited", "address": "AD-126-C DDA FLATS"}, {"location": {"latitude": 17.4554524, "longitude": 78.3027755}, "name": " Motiveprime Consumer Electronics Private Limited", "address": "102"}, {"location": {"latitude": 12.970823, "longitude": 77.6430443}, "name": " Zendrive Technologies India Private Limited", "address": "643"}, {"location": {"latitude": 28.534345, "longitude": 77.260414}, "name": " Grownout Solutions Private Limited", "address": "D-58"}, {"location": {"latitude": 12.940522, "longitude": 77.575711}, "name": " Hashcube Technologies Private Limited", "address": "SRI NARAYANA MANSIONS"}, {"location": {"latitude": 18.5522132, "longitude": 73.7704971}, "name": " Rolocule Games Private Limited", "address": "A904"}, {"location": {"latitude": 12.970226, "longitude": 77.628104}, "name": " Moonfrog Labs Private Limited", "address": "No. 16/3"}, {"location": {"latitude": 28.448479, "longitude": 77.0758733}, "name": " Balancehero India Private Limited", "address": "Office No-121"}, {"location": {"latitude": 28.617512, "longitude": 77.301524}, "name": " Epsilon Eduventures Private Limited", "address": "B-194 "}, {"location": {"latitude": 17.4284031, "longitude": 78.43266919999999}, "name": " Octathorpe Web-Consultants Private Limited", "address": "8-2-334/39 ROAD NO -3 BANJARAHILLS HYDERABAD TG 500034 IN"}, {"location": {"latitude": 19.0167972, "longitude": 72.8286997}, "name": " Gamiana Digital Entertainment Private Limited", "address": "321"}, {"location": {"latitude": 12.9280015, "longitude": 77.6362067}, "name": " Mm Sports Private Limited", "address": "House #45/1"}, {"location": {"latitude": 18.5260375, "longitude": 73.8296931}, "name": " Mastermind Sports And Accessories Private Limited", "address": "93-A"}, {"location": {"latitude": 12.9774279, "longitude": 80.1899469}, "name": " Identiti Design Private Limited", "address": "NO.7"}, {"location": {"latitude": 30.709058, "longitude": 76.77439749999999}, "name": " Edurev Solutions Private Limited", "address": "H. NO. 3608 SECTOR-32-D CHANDIGARH CH 160047 IN"}, {"location": {"latitude": 12.911723, "longitude": 77.6411207}, "name": " Dhruva Infotech Private Limited", "address": "No. 1276/90/K"}, {"location": {"latitude": 12.9146597, "longitude": 77.5989682}, "name": " Aryaka Networks India Private Limited", "address": "35/B"}, {"location": {"latitude": 28.6607628, "longitude": 77.26119849999999}, "name": " Pyxel Web Solutions Private Limited", "address": "X/3397"}, {"location": {"latitude": 28.621899, "longitude": 77.08783849999999}, "name": " Merchbay Products Private Limited", "address": "A-1/224 2nd Floor Janak Puri New Delhi New Delhi DL 110058 IN"}, {"location": {"latitude": 28.591386, "longitude": 77.0602633}, "name": " Leh Leh 7 Entertainment Solutions Private Limited", "address": "Flat No. 403"}, {"location": {"latitude": 28.6247328, "longitude": 77.4378929}, "name": " Winwin Rides Private Limited", "address": "A 003"}, {"location": {"latitude": 28.595426, "longitude": 77.048502}, "name": " Addodoc Technologies Private Limited", "address": "311"}, {"location": {"latitude": 22.6912165, "longitude": 75.83783729999999}, "name": " Positron Internet Services Private Limited", "address": "83-B VAISHALI NAGAR ANNAPURNA ROAD INDORE Indore MP 452009 IN"}, {"location": {"latitude": 25.4546551, "longitude": 81.7800639}, "name": " Boiban Business Private Limited", "address": "H. NO. 153"}, {"location": {"latitude": 17.428901, "longitude": 78.439679}, "name": " Globarena Technologies Private Limited", "address": "1 ST FLOOR"}, {"location": {"latitude": 19.139645, "longitude": 72.83413999999999}, "name": " Schoolwear Private Limited", "address": "304"}, {"location": {"latitude": 12.9445624, "longitude": 77.6249387}, "name": " Instano Technologies Private Limited", "address": "A2"}, {"location": {"latitude": 28.475552, "longitude": 77.1021025}, "name": " Sunterrace Energy Private Limited", "address": "C 8/5 GROUND FLOOR DLF PHASE-1 GURGAON Gurgaon HR 122001 IN"}, {"location": {"latitude": 19.1407985, "longitude": 72.8318376}, "name": " Indiaideas Com Limited", "address": "E-510 CRYSTAL PLAZANEW LINK ROAD ANDHERI (W) MUMBAI Mumbai City MH 400053 IN"}, {"location": {"latitude": 12.9420766, "longitude": 77.62191260000002}, "name": " Juspay Technologies Private Limited", "address": "3rd Floor"}, {"location": {"latitude": 28.526405, "longitude": 77.15551219999999}, "name": " Smsdaak India Limited", "address": "G-11/2 SANGAM VIHAR NEW DELHI South Delhi DL 110062 IN"}, {"location": {"latitude": 12.9062367, "longitude": 77.5957025}, "name": " Aujas Networks Private Limited", "address": "NO.595"}, {"location": {"latitude": 12.9344613, "longitude": 77.61342619999999}, "name": " Evibe Technologies Private Limited", "address": "No.238"}, {"location": {"latitude": 12.923358, "longitude": 77.6348862}, "name": " Yostra Labs Private Limited", "address": "NO. 200"}, {"location": {"latitude": 19.1129553, "longitude": 72.85464979999999}, "name": " Citrus Payment Solutions Private Limited", "address": "713 Sahar Plaza"}, {"location": {"latitude": 12.958565, "longitude": 77.640909}, "name": " Edreams Edusoft Private Limited", "address": "#270"}, {"location": {"latitude": 1.3181315, "longitude": 103.8428729}, "name": " InstaReM PTE limited", "address": "51 GOLDHILL PLAZA #07-10/11 SINGAPORE 308900"}, {"location": {"latitude": 28.5141683, "longitude": 77.170085}, "name": " D2C Consulting Services Private Limited", "address": "303"}, {"location": {"latitude": 12.8728909, "longitude": 77.4433796}, "name": " Localcube Commerce Private Limited", "address": "No.14-F-1"}, {"location": {"latitude": 18.9442199, "longitude": 72.8244189}, "name": " Ziqitza Health Care Limited", "address": "401-B NIRANJAN BLDG99 MARINE DRIVE MUMBAI MH 400002 IN"}, {"location": {"latitude": 12.9029476, "longitude": 77.6483356}, "name": " Simplilearn Solutions Private Limited", "address": "Manoj Arcade"}, {"location": {"latitude": 23.062791, "longitude": 72.55789229999999}, "name": " Almamapper Technologies Private Limited", "address": "1-2"}, {"location": {"latitude": 12.9145859, "longitude": 77.5610811}, "name": " Blue Book Bangalore Private Limited", "address": "No. 22"}, {"location": {"latitude": 12.9045937, "longitude": 77.5974686}, "name": " Nanolocal Technologies Private Limited", "address": "No.130"}, {"location": {"latitude": 18.5667229, "longitude": 73.7777555}, "name": " Inuxu Digital Media Technologies Private Limited", "address": "S. No. 123/1"}, {"location": {"latitude": 1.2777366, "longitude": 103.8476215}, "name": " Lathe Investment Private Limited", "address": "168"}, {"location": {"latitude": 51.5798926, "longitude": -0.3370447}, "name": " Pouring Pounds Ltd", "address": "Richmond Gatehouse Llp"}, {"location": {"latitude": 28.5968836, "longitude": 77.2960932}, "name": " DIAL PORT SOLUTION PRIVATE LIMITED", "address": "B-203"}, {"location": {"latitude": 12.8882473, "longitude": 77.5915824}, "name": " HIVELOOP TECHNOLOGY PRIVATE LIMITED", "address": "# A 2 - 1901"}, {"location": {"latitude": 18.9252996, "longitude": 72.82341869999999}, "name": " FOURTHEYE WEB TECHNOLOGIES PRIVATE LIMITED", "address": "122-A"}, {"location": {"latitude": 28.5476053, "longitude": 77.25241419999999}, "name": " ASANKHYA RETAIL PRIVATE LIMITED", "address": "703B"}, {"location": {"latitude": 28.6458728, "longitude": 77.1716658}, "name": " ALPINISMO ONLINE VENTURES PRIVATE LIMITED", "address": "7-E-2"}, {"location": {"latitude": 28.536297, "longitude": 77.27059299999999}, "name": " DESIGNBIDS TECHNOLOGIES PRIVATE LIMITED", "address": "E 43/1"}, {"location": {"latitude": 12.9700582, "longitude": 77.6749277}, "name": " ZWAYAM DIGITAL PRIVATE LIMITED", "address": "A-107 Ittina Abby Apartments"}, {"location": {"latitude": 28.6621239, "longitude": 77.31592959999999}, "name": " Dealmonk E-Services Private Limited", "address": "B-173 G/F YOJANA VIHAR DELHI East Delhi DL 110092 IN"}, {"location": {"latitude": 12.9855744, "longitude": 77.5958347}, "name": " HEYPILLOW TECHNOLOGY PRIVATE LIMITED", "address": "No. 33/01"}, {"location": {"latitude": 28.6312495, "longitude": 77.2784114}, "name": " MARA STUDIOS PRIVATE LIMITED", "address": "84"}, {"location": {"latitude": 26.8371857, "longitude": 75.83379099999999}, "name": " Girnarsoft Education Services Private Limited.", "address": "1st Floor"}, {"location": {"latitude": -20.242499, "longitude": 57.49564899999999}, "name": " Lightspeed venture partners IX Mauritius", "address": "International Financial Limited IFS Court"}, {"location": {"latitude": 12.9204754, "longitude": 77.63564579999999}, "name": " CHATPAY COMMERCE PRIVATE LIMITED", "address": "#148"}, {"location": {"latitude": 12.937119, "longitude": 77.629521}, "name": " EATLO TECH-SOLUTIONS PRIVATE LIMITED", "address": "KHYKHA ALCOVE No.10"}, {"location": {"latitude": 28.4655395, "longitude": 77.07914269999999}, "name": " RED GINGER TECHNOLOGIES PRIVATE LIMITED", "address": "C-886 Sushant Lok I Gurgaon Gurgaon HR 122001 IN"}, {"location": {"latitude": 18.9442199, "longitude": 72.8244189}, "name": " Murgency Global Services Private Limited", "address": "401-B NIRANJAN BUIDLING"}, {"location": {"latitude": 12.9270079, "longitude": 77.6332348}, "name": " Servicemonk Technologies Private Limited", "address": "No.1054"}, {"location": {"latitude": 22.6061934, "longitude": 88.4110051}, "name": " KAHAN TECHNOLOGIES PRIVATE LIMITED", "address": "196"}, {"location": {"latitude": 12.931004, "longitude": 77.62967400000001}, "name": " Unbox Technologies Private Limited", "address": "#11"}, {"location": {"latitude": 13.0098368, "longitude": 77.60635719999999}, "name": " Fintellix Solutions Private Limited", "address": "# 5-10"}, {"location": {"latitude": 19.1485209, "longitude": 72.82815459999999}, "name": " Appvintage Solutions Private Limited.", "address": "21/22 TOWER 4"}, {"location": {"latitude": 23.034531, "longitude": 72.532876}, "name": " Alma Connect Solutions Private Limited", "address": "CIIE BUILDING"}, {"location": {"latitude": 28.6317741, "longitude": 77.3046145}, "name": " Axiom Research Labs Private Limited", "address": "608"}, {"location": {"latitude": 13.0057784, "longitude": 80.2512294}, "name": " Innonano Research Private Limited", "address": "FLAT NO.7"}, {"location": {"latitude": 23.180403, "longitude": 77.438909}, "name": " Vyom Softech Private Limited", "address": "H.NO A-26"}, {"location": {"latitude": 28.4831616, "longitude": 77.08691929999999}, "name": " Kaaryah Lifestyle Solutions Private Limited.", "address": "PLOT NO. 178"}, {"location": {"latitude": 28.5562204, "longitude": 77.16778769999999}, "name": " Zocalo Realtech Private Limited", "address": "BC-1A"}, {"location": {"latitude": 12.9955724, "longitude": 77.6195484}, "name": " Crowdflux Technology Private Limited", "address": "Homewell Towers 16"}, {"location": {"latitude": 28.5374531, "longitude": 77.2106189}, "name": " Soothe Healthcare Private Limited", "address": "C-56 BASEMENT MAIN SHIVALIK ROAD"}, {"location": {"latitude": 28.536472, "longitude": 77.223083}, "name": " Techwider Technologies Private Limited", "address": "90/31B"}, {"location": {"latitude": 18.9302121, "longitude": 72.8225621}, "name": " Raay Global Investments Private Limited", "address": "302/304 Regent Chambers"}, {"location": {"latitude": 16.5114118, "longitude": 80.66545870000002}, "name": " Amoras Healthcare Private Limited", "address": "Flat No:-6/2"}, {"location": {"latitude": 18.9544302, "longitude": 72.80273319999999}, "name": " Doit Enterprises India Pvt Ltd", "address": "12-D/13-D"}, {"location": {"latitude": 52.2740111, "longitude": 4.9721002}, "name": " Bertelsmann Nederland B.V.", "address": "Amsterdamsestraatweg 28"}, {"location": {"latitude": -20.242972, "longitude": 57.49288199999999}, "name": " Mayfield India Ii", "address": "4th floor"}, {"location": {"latitude": -20.243199, "longitude": 57.496375}, "name": " Darrin Capital Management", "address": "4th Floor"}, {"location": {"latitude": 12.9720546, "longitude": 77.642343}, "name": " Dunzo Digital Private Limited", "address": "No. 457"}, {"location": {"latitude": 28.5541775, "longitude": 77.2512917}, "name": " Rooms Worldwide Private Limited", "address": "76/1"}, {"location": {"latitude": 28.6095544, "longitude": 77.3302981}, "name": " Zeolr Technologies Private Limited", "address": "179 D POCKET A3 MAYUR VIHAR PH - III NEW DELHI East Delhi DL 110096 IN"}, {"location": {"latitude": 19.1225193, "longitude": 72.84483209999999}, "name": " Sbb Venture Private Limited.", "address": "39"}, {"location": {"latitude": 12.9254629, "longitude": 77.5620726}, "name": " Senzible Marketing Private Limited", "address": "1237/1"}, {"location": {"latitude": 19.118285, "longitude": 72.9052343}, "name": " Zoctr Health Private Limited", "address": "1014"}, {"location": {"latitude": 19.09135, "longitude": 72.915868}, "name": " New Age Networks Private Limited", "address": "B-705/706"}, {"location": {"latitude": 19.0536222, "longitude": 72.887749}, "name": " Satvika Bio-Foods India Private Limited", "address": "202/B"}, {"location": {"latitude": 28.549355, "longitude": 77.251288}, "name": " Iluminar Media Private Limited", "address": "203"}, {"location": {"latitude": 12.9738458, "longitude": 77.635334}, "name": " Bookyourgym Fitness Private Limited", "address": "HOUSE # 1112"}, {"location": {"latitude": 18.4284537, "longitude": -64.6131442}, "name": " Rhythm Ventures Limited", "address": "Coastal Building"}, {"location": {"latitude": 12.9596069, "longitude": 77.6386321}, "name": " Supermarket Grocery Supplies Private Limited", "address": "7 SERVICE ROAD DOMLUR 100 FEET ROAD INDIRANAGAR BANGALORE KA 560071 IN"}, {"location": {"latitude": 12.918196, "longitude": 77.649446}, "name": " Njuta Technologies Private Limited", "address": "No.1032"}, {"location": {"latitude": 12.9235717, "longitude": 77.60813399999999}, "name": " Adriyo Technology Private Limited", "address": "Flat 310"}, {"location": {"latitude": 18.5496863, "longitude": 73.8888345}, "name": " Volare Technologies Private Limited", "address": "7 GANGA COMPLEX"}, {"location": {"latitude": 28.63094, "longitude": 77.08924499999999}, "name": " Techlites Solution Private Limited", "address": "B3/72 JANAKPURI NEW DELHI DL 110058 IN"}, {"location": {"latitude": 28.4941463, "longitude": 77.0809093}, "name": " Quickdel Logistics Private Limited", "address": "PLOT NO.-31 UDYOG VIHAR"}, {"location": {"latitude": 28.6546468, "longitude": 77.2972589}, "name": " Tausch Tradeface Private Limited", "address": "245 AGCR Enclave Opposite Karkardooma Court Delhi DL 110092 IN"}, {"location": {"latitude": 28.549008, "longitude": 77.272071}, "name": " Red Pixels Ventures Limited", "address": "207"}, {"location": {"latitude": 12.9724427, "longitude": 77.60164979999999}, "name": " Spunklane Media Private Limited", "address": "NO.6 SBI ROAD(MADRAS BANK ROAD) BANGALORE KA 560001 IN"}, {"location": {"latitude": 12.9393377, "longitude": 77.6288824}, "name": " TutorVista Education India Private Limited", "address": "No.10"}, {"location": {"latitude": 12.9089588, "longitude": 77.63802009999999}, "name": " Poncho Hospitality Private Limited", "address": "No. 548"}, {"location": {"latitude": 19.1172873, "longitude": 72.889785}, "name": " Tangramme Furnishing Solutions Private Limited", "address": "A 303"}, {"location": {"latitude": 28.695022, "longitude": 77.135089}, "name": " Legal Raasta Technologies Private Limited", "address": "B-186"}, {"location": {"latitude": 17.344734, "longitude": 78.51829099999999}, "name": " Bojja It Solutions Private Limited", "address": "PLOT NO.83"}, {"location": {"latitude": 19.0827819, "longitude": 72.8361349}, "name": " Mhealth Ventures India Private Limited", "address": "401"}, {"location": {"latitude": 18.6445706, "longitude": 73.82989959999999}, "name": " Tork Motors Private Limited", "address": "Plot No. 4/25"}, {"location": {"latitude": 28.511304, "longitude": 77.23256040000001}, "name": " High City Retail Private Limited", "address": "C-110"}, {"location": {"latitude": 12.9153738, "longitude": 77.6281818}, "name": " Mud Flap Technologies Private Limited", "address": "1st FLOOR"}, {"location": {"latitude": 12.9052303, "longitude": 77.58829829999999}, "name": " Unilog Content Solutions Private Limited", "address": "11"}, {"location": {"latitude": 12.9062313, "longitude": 77.62967499999999}, "name": " Justlikenew Technologies Private Limited", "address": "H No. 35"}, {"location": {"latitude": 28.6200527, "longitude": 77.2364103}, "name": " Sirion Labs Private Limited", "address": "10B"}, {"location": {"latitude": 18.9711833, "longitude": 72.81014119999999}, "name": " Rockdude Impex Private Limited", "address": "E - 12"}, {"location": {"latitude": 28.5227894, "longitude": 77.2147492}, "name": " High Street Essentials Private Limited", "address": "D-3 FIRST FLOOR MAHARANI BAGH NEW DELHI DL 110065 IN"}, {"location": {"latitude": 22.5446882, "longitude": 88.35818689999999}, "name": " Applop Mobile Solutions Private Limited", "address": "37"}, {"location": {"latitude": 12.9233976, "longitude": 77.5814199}, "name": " Shopalyst Technologies Private Limited", "address": "No.288"}, {"location": {"latitude": 12.9283657, "longitude": 77.669674}, "name": " Homevista Decor And Furnishing Private Limited.", "address": "NO. 2001"}, {"location": {"latitude": 12.9714488, "longitude": 77.60087229999999}, "name": " Ocio Hospitality Private Limited.", "address": "104"}, {"location": {"latitude": 28.6304231, "longitude": 77.3093523}, "name": " Intermesh Shopping Network Private Limited", "address": "408 AASHIRWAD ENCLAVE104 I P EXTENSION DELHI DL 110092 IN"}, {"location": {"latitude": 28.396602, "longitude": 77.321805}, "name": " Lybrate India Private Limited", "address": "H. No. 199 SECTOR- 15A FARIDABAD Faridabad HR 121007 IN"}, {"location": {"latitude": 28.538213, "longitude": 77.288562}, "name": " Solvy Tech Solutions Private Limited", "address": "Level 2"}, {"location": {"latitude": 12.9163041, "longitude": 77.64482579999999}, "name": " Moneyvation Technologies Private Limited", "address": "No. 217"}, {"location": {"latitude": 12.9113566, "longitude": 77.6334878}, "name": " Foodvista India Private Limited", "address": "NO. 1229"}, {"location": {"latitude": 19.2439862, "longitude": 72.8510244}, "name": " S-Cube Futuretech Private Limited", "address": "Flat No. 02"}, {"location": {"latitude": 28.484633, "longitude": 77.085095}, "name": " Surfboats Solutions Private Limited", "address": "ANM-39F"}, {"location": {"latitude": 17.4456406, "longitude": 78.38366719999999}, "name": " Mapmygenome India Limited", "address": "Royal Demeure"}, {"location": {"latitude": -20.243199, "longitude": 57.496375}, "name": " ABG Capital", "address": "C/o. Apex Fund Services"}, {"location": {"latitude": 12.8064766, "longitude": 77.6937978}, "name": " Medgenome Labs Private Limited.", "address": "No. 258/A"}, {"location": {"latitude": 28.5413547, "longitude": 77.2401074}, "name": " Nfx Digital Private Limited", "address": "306"}, {"location": {"latitude": 18.5821807, "longitude": 73.9708479}, "name": " Sminq India Solutions Private Limited.", "address": "M - 401"}, {"location": {"latitude": 28.6310013, "longitude": 77.382041}, "name": " Innovaccer Technologies Private Limited", "address": "A 61 B/4"}, {"location": {"latitude": 28.4497417, "longitude": 77.1014768}, "name": " L-Fast Brands Private Limited", "address": "D 274 The Belaire DLF Phase V Gurgaon HR 122002 IN"}, {"location": {"latitude": 28.6162167, "longitude": 77.0424092}, "name": " Petsglam Services Private Limited", "address": "150"}, {"location": {"latitude": 28.4843162, "longitude": 77.08827}, "name": " Viceroy Studios Private Limited", "address": "J-3/46"}, {"location": {"latitude": 28.6372779, "longitude": 77.30784489999999}, "name": " Vyome Biosciences Private Limited", "address": "Ground Floor"}, {"location": {"latitude": 19.0646885, "longitude": 72.9966938}, "name": " Automotive Exchange Private Limited", "address": "12th Floor Vishwaroop IT Park Sector 30A Vashi Navi Mumbai MH 400705 IN"}, {"location": {"latitude": 28.6961009, "longitude": 77.15270079999999}, "name": " Wiwigo Technologies Private Limited", "address": "505 KLJ TOWER NETAJI SUBHASH PLACE "}, {"location": {"latitude": 28.564575, "longitude": 77.35777499999999}, "name": " Aarvee Idealab Technologies Private Limited.", "address": "D-45"}, {"location": {"latitude": 12.9060862, "longitude": 77.6499161}, "name": " Urban Stay Technologies Private Limited", "address": "3rd Floor"}, {"location": {"latitude": 19.1178275, "longitude": 72.85368919999999}, "name": " Motocruizer Technologies India Private Limited", "address": "403"}, {"location": {"latitude": 21.0982573, "longitude": 79.0663893}, "name": " Sellmouse E-Marketing Private Limited", "address": "P NO. 124 GAWANDE LAYOUT TELECOM NAGAR NAGPUR Nagpur MH 440022 IN"}, {"location": {"latitude": 12.9782113, "longitude": 77.63795379999999}, "name": " Pin Click Property Management Private Limited", "address": "#538"}, {"location": {"latitude": 28.5602552, "longitude": 77.2127309}, "name": " Imaniac Technologies Private Limited", "address": "216-3/B Gautam Nagar"}, {"location": {"latitude": 13.0203421, "longitude": 77.6410657}, "name": " Hyperlocal Technology", "address": "308"}, {"location": {"latitude": 28.6560333, "longitude": 77.3083904}, "name": " Mywish Marketplaces Private Limited", "address": "115 SURYA NIKETAN NEW DELHI East Delhi DL 110092 IN"}, {"location": {"latitude": 28.5423364, "longitude": 77.2149128}, "name": " Gc Web Ventures Private Limited", "address": "E-59 PANCHSHILA PARK DELHI New Delhi DL 110017 IN"}, {"location": {"latitude": 13.0632213, "longitude": 77.6386083}, "name": " Rentsher Online Rentals Private Limited", "address": "D1-004 Golden Palms"}, {"location": {"latitude": 18.9236623, "longitude": 72.8329464}, "name": " Mahindra First Choice Wheels Limited", "address": "GATEWAY BLDGAPOLLO BUNDER MUMBAI Mumbai City MH 400001 IN"}, {"location": {"latitude": 28.5674621, "longitude": 77.26913259999999}, "name": " Vahan Technologies India Private Limited", "address": "C-625 NEW FRIENDS COLONY 3RD FLOOR"}, {"location": {"latitude": 12.9025052, "longitude": 77.6309926}, "name": " Pristech Technologies Private Limited", "address": "NO. B-1504"}, {"location": {"latitude": 28.566516, "longitude": 77.248893}, "name": " Vcare Technologies Private Limited", "address": "I-10 LAJPAT NAGAR II NEW DELHI DL 110024 IN"}, {"location": {"latitude": 9.9879057, "longitude": 76.27896179999999}, "name": " Mobme Wireless Solutions Limited", "address": "One Plaza Old Railway Station Road Cochin Ernakulam KL 682018 IN"}, {"location": {"latitude": 28.4849932, "longitude": 77.0943169}, "name": " Streo Technologies Private Limited", "address": "Q-5/19"}, {"location": {"latitude": 25.1277601, "longitude": 75.8512167}, "name": " Mr. Hot Foods Private Limited", "address": "252"}, {"location": {"latitude": 28.5354924, "longitude": 77.24504280000001}, "name": " Moneymitra It Solutions Private Limited", "address": "M-32 Greater Kailash II New delhi South Delhi DL 110048 IN"}, {"location": {"latitude": 28.5032472, "longitude": 77.30142}, "name": " Staqu Technologies Private Limited", "address": "H No. 331"}, {"location": {"latitude": 19.1041109, "longitude": 72.84662689999999}, "name": " Happy Gaana Entertainment Pvt.Ltd.", "address": "301"}, {"location": {"latitude": 13.0144437, "longitude": 77.54904479999999}, "name": " Town Essentials Private Limited", "address": "NO54/1"}, {"location": {"latitude": 19.001481, "longitude": 72.827787}, "name": " Halo Ventures LLP", "address": "The Empire Business Centre"}, {"location": {"latitude": 28.6275203, "longitude": 77.2289285}, "name": " Rksv Commodities India Private Limited", "address": "807"}, {"location": {"latitude": 18.476168, "longitude": 73.817523}, "name": " Custmore Interactive Solutions Private Limited", "address": "A/903"}, {"location": {"latitude": 28.5494489, "longitude": 77.2001368}, "name": " Netree E-Services Private Limited", "address": "H.NO. K-34A"}, {"location": {"latitude": 28.41689, "longitude": 77.046716}, "name": " Satvacart Innovative Concepts Private Limited", "address": "BASEMENT"}, {"location": {"latitude": 19.0189048, "longitude": 72.8520204}, "name": " Food Marshal Tech Services Private Limited", "address": "640B"}, {"location": {"latitude": 12.9321851, "longitude": 77.6156642}, "name": " Qwikcilver Solutions Private Limited", "address": "No.111"}, {"location": {"latitude": 28.5710071, "longitude": 77.3490613}, "name": " Wealthapp Solution Private Limited", "address": "A-110"}, {"location": {"latitude": 28.4494222, "longitude": 77.0968128}, "name": " Mealhopper Technologies Private Limited", "address": "Unit No. 161"}, {"location": {"latitude": 28.534345, "longitude": 77.260414}, "name": " Cue Learn Private Limited", "address": "D-58"}, {"location": {"latitude": 13.0220336, "longitude": 77.6496482}, "name": " Touchkin Eservices Private Limited", "address": "Sai Gallerium"}, {"location": {"latitude": 28.474387, "longitude": 77.077016}, "name": " Muhavra Enterprises Private Limited", "address": "D-173"}, {"location": {"latitude": 18.9244575, "longitude": 72.8230106}, "name": " Livquik Technology (India) Private Limited", "address": "709 MAKER CHAMBERS V NARIMAN POINT MUMBAI MH 400021 IN"}, {"location": {"latitude": 28.4475062, "longitude": 77.0606754}, "name": " Hector Beverages Private Limited", "address": "B-82"}, {"location": {"latitude": 13.0846133, "longitude": 77.58867459999999}, "name": " Findulum Techlabs Private Limited", "address": "Flat No. 5002"}, {"location": {"latitude": -20.2424442, "longitude": 57.4884947}, "name": " MPOF Mauritius Limited", "address": "7TH FLOOR"}, {"location": {"latitude": 19.2054658, "longitude": 72.827601}, "name": " Urjas Energy Solutions Private Limited", "address": "O-SH.19"}, {"location": {"latitude": 12.918948, "longitude": 77.6102961}, "name": " Cropin Technology Solutions Private Limited", "address": "3rd Floor"}, {"location": {"latitude": 28.5231422, "longitude": 77.2078329}, "name": " Udaan Angel Partners", "address": "3 Community centre"}, {"location": {"latitude": 12.913258, "longitude": 77.63528529999999}, "name": " Ezetap Mobile Solutions Private Limited", "address": "No.151"}, {"location": {"latitude": 22.6036412, "longitude": 88.3987283}, "name": " Metaiot Technologies Private Limited", "address": "4TH FLOOR"}, {"location": {"latitude": 28.4478843, "longitude": 77.0562219}, "name": " Skrilo India Private Limited", "address": "Plot No. 1027"}, {"location": {"latitude": 13.049981, "longitude": 77.6197476}, "name": " Voonik Technologies Private Limited", "address": "N-1 Block"}, {"location": {"latitude": 28.6322338, "longitude": 77.3026115}, "name": " Duronto Technologies Private Limited", "address": "H-502"}, {"location": {"latitude": 17.424497, "longitude": 78.451038}, "name": " Numbermall Private Limited", "address": "# 8-2-248/1/7/69"}, {"location": {"latitude": 22.5873072, "longitude": 88.3584881}, "name": " Mihup Communications Private Limited", "address": "22B"}, {"location": {"latitude": 18.9967389, "longitude": 72.8376653}, "name": " Outletwise Retail Private Limited", "address": "903/4/5 Ashok Tower-A 63/7-4"}, {"location": {"latitude": 19.1321327, "longitude": 72.8345389}, "name": " Green Leaves Consumer Services Private Limited", "address": "OFFICE NO. 206"}, {"location": {"latitude": 28.5471889, "longitude": 77.250802}, "name": " One 97 Communications India Limited", "address": "FIRST FLOOR"}, {"location": {"latitude": 28.6236565, "longitude": 77.2987624}, "name": " Rosh Capital Advisory Private Limited", "address": "II-D-10A LAJPAT NAGAR NEW DELHI South Delhi DL 110024 IN"}, {"location": {"latitude": 28.5428238, "longitude": 77.23954789999999}, "name": " Storemore Storage Solutions Private Limited", "address": "E-24"}, {"location": {"latitude": 28.4437533, "longitude": 77.0553978}, "name": " Veddis Labs Private Limited", "address": "406"}, {"location": {"latitude": 22.5712751, "longitude": 88.3467229}, "name": " Bhatkawa Tea Industries Limited", "address": "2 HARE STREET KOLKATA WB 700001 IN"}, {"location": {"latitude": 12.9106561, "longitude": 77.6225757}, "name": " Flashdoor Internet Services Private Limited", "address": "No. 641"}, {"location": {"latitude": 28.5597298, "longitude": 77.2127388}, "name": " Manak Waste Management Private Limited", "address": "15"}, {"location": {"latitude": 19.2973892, "longitude": 73.0476162}, "name": " Omnikart Engineering Private Limited", "address": "985/5 SAMRU BAUGH BHIWANDI Thane MH 421302 IN"}, {"location": {"latitude": 30.7135646, "longitude": 76.7530761}, "name": " Tapcibo Online Solutions Private Limited", "address": "428 SECTOR 44 A CHANDIGARH Chandigarh CH 160036 IN"}, {"location": {"latitude": 28.6774486, "longitude": 77.1646932}, "name": " S.B. Webtech Private Limited", "address": "1736A/126"}, {"location": {"latitude": 28.6374969, "longitude": 77.2836698}, "name": " Ido Sport Private Limited.", "address": "648"}, {"location": {"latitude": 12.93638, "longitude": 77.626631}, "name": " Suphalaam Technologies Private Limited", "address": "GOLDEN SQUARE"}, {"location": {"latitude": 19.120103, "longitude": 72.9120507}, "name": " Igrenenergi Technologies Private Limited", "address": "B 503"}, {"location": {"latitude": 8.5603775, "longitude": 76.8811941}, "name": " Madmart Services Private Limited", "address": "PLOT NO.2"}, {"location": {"latitude": 43.6503354, "longitude": -79.38078639999999}, "name": " New India Investment Corporation", "address": "Suite No. 650"}, {"location": {"latitude": 18.9956086, "longitude": 72.82726869999999}, "name": " Ping Digital Broadcast Private Limited", "address": "319"}, {"location": {"latitude": 27.1871977, "longitude": 78.00740859999999}, "name": " Onspon Services Private Limited", "address": "38/1"}, {"location": {"latitude": 22.7255513, "longitude": 75.89346809999999}, "name": " Avps Transort Private Limited", "address": "FLAT NO. 209"}, {"location": {"latitude": 28.6365964, "longitude": 77.0666525}, "name": " Truelancer Internet Private Limited", "address": "DG-III/113 MIG FLATS VIKAS PURI NEW DELHI South West Delhi DL 110018 IN"}, {"location": {"latitude": 17.3491931, "longitude": 78.5710534}, "name": " Endless Robotics Private Limited", "address": "9/13 Bahar A"}, {"location": {"latitude": 22.7258984, "longitude": 75.88738900000001}, "name": " Instacar Technologies Private Limited", "address": "767 PANCHWATI COLONY A.B. ROAD"}, {"location": {"latitude": 28.540281, "longitude": 77.208429}, "name": " Quickli Technologies Private Limited", "address": "2/12"}, {"location": {"latitude": 17.424497, "longitude": 78.451038}, "name": " Yupptv India Private Limited", "address": "8-2-293/82/A/773/1"}, {"location": {"latitude": 12.9373626, "longitude": 77.57180939999999}, "name": " Tracxn Technologies Private Limited", "address": "48"}, {"location": {"latitude": 18.5655805, "longitude": 73.80504069999999}, "name": " Campus Diaries Media And Communications Private Limited", "address": "A 1/1"}, {"location": {"latitude": 28.6569117, "longitude": 77.3081546}, "name": " Wrs Info India Private Limited", "address": "115"}, {"location": {"latitude": 12.97064, "longitude": 77.597337}, "name": " Impact Analytics India Private Limited", "address": "Golden Square"}, {"location": {"latitude": 12.967637, "longitude": 77.653368}, "name": " Belong Technologies India Private Limited", "address": "No 6"}, {"location": {"latitude": 12.941984, "longitude": 77.623097}, "name": " Buyhatke Internet Private Limited", "address": "No. 32"}, {"location": {"latitude": 28.6361257, "longitude": 77.3646041}, "name": " Sidqam Technologies Private Limited", "address": "U 1 802 PLOT NO 2B VAIBHAV KHAND INDRAPURAM GHAZIABAD Ghaziabad UP 201010 IN"}, {"location": {"latitude": 12.925515, "longitude": 77.63615399999999}, "name": " Camden Town Technologies Private Limited", "address": "# 151 3rd floor Moksha Mansion Sarjapur Main Road 1st Block Koramangala Bengaluru Bangalore KA 560034 IN"}, {"location": {"latitude": 28.4657364, "longitude": 77.083787}, "name": " Star Car Care Solutions Private Limited", "address": "203"}, {"location": {"latitude": 23.2033786, "longitude": 77.4369413}, "name": " Sahayog Clean Milk Private Limited", "address": "E-7/88 LALA LAJPAT RAI SOCIETY ARERA COLONY BHOPAL MP 462016 IN"}, {"location": {"latitude": 17.3896238, "longitude": 78.4712469}, "name": " Aayuv Technologies Private Limited", "address": "PLOT NO. D-35"}, {"location": {"latitude": -20.243765, "longitude": 57.493056}, "name": " GHI Holdings", "address": "C/O GFIN Corporate Service Limited"}, {"location": {"latitude": 10.9863544, "longitude": 77.0008916}, "name": " Shortails Technology Private Limited", "address": "B7 PARSAN APARTMENT"}, {"location": {"latitude": 28.4135359, "longitude": 77.06580079999999}, "name": " Primemover Mobility Technologies Private Limited", "address": "259 E-Space Nirvana Country Sector - 50 Gurgaon Gurgaon HR 122018 IN"}, {"location": {"latitude": 28.5472945, "longitude": 77.19808809999999}, "name": " Ad Victoriam Ventures Private Limited", "address": "C-1/14"}, {"location": {"latitude": 26.877156, "longitude": 75.7732154}, "name": " Neuroequilibrium Diagnostic Systems Private Limited", "address": "140"}, {"location": {"latitude": 12.991154, "longitude": 77.728662}, "name": " Urbanpiper Technology Private Limited", "address": "NO. 5097"}, {"location": {"latitude": 12.9235604, "longitude": 77.5848446}, "name": " Addresshealth Solutions India Private Limited", "address": "692"}, {"location": {"latitude": 28.6399034, "longitude": 77.1837091}, "name": " Supath Healthcare Services Private Limited", "address": "26/13"}, {"location": {"latitude": 19.1722732, "longitude": 72.9413947}, "name": " Green India Building Systems & Services Private Limited", "address": "Office no 605"}, {"location": {"latitude": 26.4080866, "longitude": 80.36602560000001}, "name": " Waah Taxis Private Limited", "address": "57/49-B BLOCK SHYAM NAGAR KANPUR Kanpur UP 208004 IN"}, {"location": {"latitude": 28.5463881, "longitude": 77.2537246}, "name": " Hd Technology Private Limited", "address": "138"}, {"location": {"latitude": 22.5402292, "longitude": 88.3806122}, "name": " Augment Ventures", "address": "PS Peninsula"}, {"location": {"latitude": 18.9937219, "longitude": 72.8258377}, "name": " FSN E-Commerce Ventures Private Limited", "address": "104 Vasan Udyog Bhavan"}, {"location": {"latitude": 28.5314271, "longitude": 77.24947639999999}, "name": " Eko India Financial Services Private Limited", "address": "547"}, {"location": {"latitude": 19.061806, "longitude": 73.01984900000001}, "name": " Fino Paytech Limited", "address": "Shree Sawan Knowledge Park"}, {"location": {"latitude": 19.1192615, "longitude": 72.91075860000001}, "name": " Origa Renting Private Limited", "address": "B/701"}, {"location": {"latitude": 28.5497805, "longitude": 77.23679589999999}, "name": " Rategain Travel Technologies Private Limited", "address": "M-140"}, {"location": {"latitude": 26.931934, "longitude": 75.79878049999999}, "name": " Logic Roots Private Limited", "address": "219 Pink City Towers Bani Park JAIPUR RJ 302016 IN"}, {"location": {"latitude": 12.9855744, "longitude": 77.5958347}, "name": " Nitesh Industries Private Limited", "address": "25A"}, {"location": {"latitude": 12.9555775, "longitude": 77.637092}, "name": " Boost Enterprises India Private Limited", "address": "72 &73"}, {"location": {"latitude": 13.0594726, "longitude": 80.24759259999999}, "name": " Utoo Cabs Limited", "address": "OLD NO.19"}, {"location": {"latitude": 28.540079, "longitude": 77.271417}, "name": " Images Multimedia Private Limited", "address": "S-21"}, {"location": {"latitude": 28.62911, "longitude": 77.139167}, "name": " Nayi Disha Studios Private Limited", "address": "G - 186 Naraina Vihar New Delhi DL 110028 IN"}, {"location": {"latitude": 28.6473748, "longitude": 77.2109109}, "name": " Leaf Innovation Private Limited", "address": "H NO. 6961/3"}, {"location": {"latitude": 28.5471889, "longitude": 77.250802}, "name": " One 97 Communications Limited", "address": "First Floor"}, {"location": {"latitude": 1.3181315, "longitude": 103.8428729}, "name": " Letsventure Online Pte Ltd", "address": "51 GOLDHILL PLAZA #07-10/11 SINGAPORE 308900"}, {"location": {"latitude": 28.4916769, "longitude": 77.1077344}, "name": " Fairassets Technologies India Private Limited", "address": "SR-31"}, {"location": {"latitude": 12.9606276, "longitude": 80.2141244}, "name": " Hitachi Payment Services Private Limited", "address": "LEVEL 2"}, {"location": {"latitude": 19.120425, "longitude": 72.8632569}, "name": " Transerv Private Limited", "address": "Ground floor"}, {"location": {"latitude": 22.5510095, "longitude": 88.3557002}, "name": " Nomisma Mobile Solutions Private Limited", "address": "46A"}, {"location": {"latitude": 12.9293953, "longitude": 77.6220999}, "name": " Tablehero Technologies Private Limited", "address": "596/1 4th Block"}, {"location": {"latitude": 19.0703493, "longitude": 72.8632695}, "name": " Edelweiss Finance & Investments Limited", "address": "Edelweiss House"}, {"location": {"latitude": 22.5158216, "longitude": 88.3575761}, "name": " Samvidhi Projects Llp", "address": "133B"}, {"location": {"latitude": 13.030586, "longitude": 77.68376119999999}, "name": " Finnovation Tech Solutions Private Limited", "address": "NO 296"}, {"location": {"latitude": 28.473254, "longitude": 77.04433399999999}, "name": " Swajal Water Private Limited", "address": "C-126A"}, {"location": {"latitude": -20.2411651, "longitude": 57.496503}, "name": " Accel India II (Mauritius) Limited", "address": "5th Floor"}, {"location": {"latitude": 28.548417, "longitude": 77.27136019999999}, "name": " Jasper Infotech Private Limited", "address": "First Floor"}, {"location": {"latitude": 28.5767514, "longitude": 77.2318107}, "name": " Indulge Beverages Private Limited", "address": "A-157"}, {"location": {"latitude": 22.5758778, "longitude": 88.4345743}, "name": " Arohan Financial Services Private Limited", "address": "PTI Building"}, {"location": {"latitude": 28.6659749, "longitude": 77.4446986}, "name": " Agile Parking Solutions Private Limited", "address": "KB-160 Kavinagar Ghaziabad Ghaziabad UP 201002 IN"}, {"location": {"latitude": 28.627978, "longitude": 77.22523799999999}, "name": " Delite Infrastructure Private Limited", "address": "607 ROHIT HOUSE"}, {"location": {"latitude": 22.5671987, "longitude": 88.3510816}, "name": " Sivpl Products Private Limited", "address": "1 CROOKED LANE KOLKATA WB 700069 IN"}, {"location": {"latitude": 12.909204, "longitude": 77.640074}, "name": " Loanzen Technologies Private Limited", "address": "734"}, {"location": {"latitude": 28.6630642, "longitude": 77.27179439999999}, "name": " 8 Finatics Mobile Private Limited", "address": "R-13 SECOND FLOOR"}, {"location": {"latitude": 12.912458, "longitude": 77.646303}, "name": " Buildwealth Technologies Private Limited", "address": "2275A"}, {"location": {"latitude": 19.1094934, "longitude": 72.8518479}, "name": " Invictus Insurance Broking Services Private Limited", "address": "UNIT NO.314"}, {"location": {"latitude": 12.9654366, "longitude": 80.19847949999999}, "name": " Brigge Technologies Private Limited", "address": "NO. 2/570"}, {"location": {"latitude": 13.0141459, "longitude": 80.2114778}, "name": " Customer Analytics India Private Limited", "address": "6th Floor"}, {"location": {"latitude": 12.9150156, "longitude": 77.62621899999999}, "name": " Oliveboard Comptech Private Limited", "address": "590"}, {"location": {"latitude": 28.5119564, "longitude": 77.1663528}, "name": " Phonon Solutions Private Limited", "address": "2125"}, {"location": {"latitude": 26.8971719, "longitude": 75.7355178}, "name": " Gbs Travel & Foodtech Private Limited", "address": "F 2/201"}, {"location": {"latitude": 12.8836846, "longitude": 80.1999289}, "name": " Piqube Analytics Private Limited", "address": "302"}, {"location": {"latitude": 28.4546071, "longitude": 77.050466}, "name": " Quartz Business Media India Private Limited", "address": "409"}, {"location": {"latitude": 22.5391859, "longitude": 88.3542944}, "name": " Lansdowne Investments Private Limited", "address": "IDEAL PLAZA"}, {"location": {"latitude": 28.5227894, "longitude": 77.2147492}, "name": " Senbonzakura Consultancy Private Limited", "address": "E 47"}, {"location": {"latitude": 12.96964, "longitude": 77.643535}, "name": " Scripbox.Com India Private Limited", "address": "NO: 2966"}, {"location": {"latitude": 19.0977625, "longitude": 72.9168266}, "name": " Arthashastra Fintech Private Limited", "address": "94"}, {"location": {"latitude": 12.9073769, "longitude": 77.6381304}, "name": " Celerix Infotech Private Limited", "address": "No. 554"}, {"location": {"latitude": 26.8437601, "longitude": 75.81753929999999}, "name": " Seedlogix Resources India Private Limited", "address": "P N 4"}, {"location": {"latitude": 28.6254967, "longitude": 77.4385084}, "name": " Rnvp Technology Private Limited", "address": "HOUSE No.-B-9012 Prateek The Royal Cliff Crossing Republik Ghaziabad Ghaziabad UP 201016 IN"}, {"location": {"latitude": 12.9843347, "longitude": 77.5982856}, "name": " Finwizard Technology Private Limited", "address": "Queens Paradise"}, {"location": {"latitude": 28.4341423, "longitude": 77.1033309}, "name": " Yellow Brick Road Digital Marketing Private Limited", "address": "401C"}, {"location": {"latitude": 17.38909, "longitude": 78.49013300000001}, "name": " Cruxio Labs Private Limited", "address": "1-7-15/8 Habsiguda Hyderabad TG 500079 IN"}, {"location": {"latitude": 28.45219, "longitude": 77.049346}, "name": " Sekhmet Technologies Private Limited", "address": "HOUSE NO 413 SECTOR-31 GURAGON Gurgaon HR 122001 IN"}, {"location": {"latitude": 12.9158153, "longitude": 77.6318877}, "name": " Zenparent Solutions Private Limited", "address": "#L-176"}, {"location": {"latitude": 12.9629467, "longitude": 77.6385779}, "name": " Sarvaloka Services-On-Call Private Limited", "address": "S M TOWER"}, {"location": {"latitude": 22.5046389, "longitude": 88.3671806}, "name": " Lucideus Tech Private Limited", "address": "390 A"}, {"location": {"latitude": 28.6299715, "longitude": 77.08075600000001}, "name": " Perspectful Advisory Services Private Limited", "address": "Suite 909"}, {"location": {"latitude": -20.242499, "longitude": 57.49564899999999}, "name": " ON Mauritius", "address": "IFS Court"}, {"location": {"latitude": 17.4284031, "longitude": 78.43266919999999}, "name": " Seed Edu. Corp. (India) Private Limited", "address": "8-2-269/S/52"}, {"location": {"latitude": 22.5389539, "longitude": 88.35421269999999}, "name": " Dalmia Investmart Private Limited", "address": "IDEAL PLAZA"}, {"location": {"latitude": 19.0063699, "longitude": 72.8331864}, "name": " Neogrowth Credit Private Limited", "address": "503"}, {"location": {"latitude": 28.527874, "longitude": 77.2504416}, "name": " Tripoto Travel Private Limited", "address": "431 Nilgiri Apartments Alaknanda New Delhi DELHI New Delhi DL 110019 IN"}, {"location": {"latitude": 28.5782157, "longitude": 77.196561}, "name": " Ofb Tech Private Limited", "address": "E-6"}, {"location": {"latitude": 28.5679593, "longitude": 77.23754}, "name": " Pasta Lifestyle Solutions Private Limited", "address": "C-5"}, {"location": {"latitude": 12.9054507, "longitude": 77.62678489999999}, "name": " Moonshots Internet Private Limited", "address": "No. 319/1"}, {"location": {"latitude": 28.536472, "longitude": 77.223083}, "name": " Leap Learning Solutions Private Limited", "address": "90/31B FIRST FLOOR MALVIYA NAGAR NEW DELHI South Delhi DL 110017 IN"}, {"location": {"latitude": 18.5934479, "longitude": 73.79584489999999}, "name": " Makkajai Edu Tech Private Limited", "address": "F-702"}, {"location": {"latitude": 48.2143976, "longitude": 16.3512012}, "name": " ChatGrape GmbH", "address": "Lange Gasse 76/18"}, {"location": {"latitude": 12.9076628, "longitude": 77.6433824}, "name": " Gapoon Online Consumer Services Private Limited", "address": "2nd Floor"}, {"location": {"latitude": 28.4684203, "longitude": 77.08308099999999}, "name": " Thinklink Supply Chain Services Private Limited", "address": "405-406"}, {"location": {"latitude": 28.5462079, "longitude": 77.19664259999999}, "name": " Huddletech Services Private Limited", "address": "C-4"}, {"location": {"latitude": 28.6286194, "longitude": 77.2228425}, "name": " Blue Jay Finlease Limited", "address": "Flat No. 1201-C"}, {"location": {"latitude": 28.5270983, "longitude": 77.2201272}, "name": " 42Company India Private Limited", "address": "325"}, {"location": {"latitude": 22.4876938, "longitude": 88.350433}, "name": " Labsense Technology Services Private Limited", "address": "140/2A NETAJI SUBHAS CHANDRA BOSE ROAD KOLKATA Kolkata WB 700040 IN"}, {"location": {"latitude": 18.9263029, "longitude": 72.82103699999999}, "name": " Degustibus Hospitality Private Limited", "address": "8th Floor"}, {"location": {"latitude": 19.1192432, "longitude": 72.8940343}, "name": " Bloomskart Retail Private Limited", "address": "J 1403"}, {"location": {"latitude": 28.6985788, "longitude": 77.1459998}, "name": " Ideope Media Private Limited", "address": "PD Block"}, {"location": {"latitude": 28.40682, "longitude": 77.042137}, "name": " Tripbaaz Technologies Private Limited", "address": "144"}, {"location": {"latitude": 28.5998608, "longitude": 77.1643376}, "name": " Advergame Technologies Private Limited", "address": "E-1/A"}, {"location": {"latitude": 28.6168288, "longitude": 77.03674699999999}, "name": " Real Time Networks Private Limited", "address": "D-1/38"}, {"location": {"latitude": 28.5387973, "longitude": 77.2824464}, "name": " Infinity Assurance Solutions Private Limited", "address": "Flat No. 314"}, {"location": {"latitude": 28.5386716, "longitude": 77.2398654}, "name": " Lenskart Solutions Private Limited", "address": "W-123"}, {"location": {"latitude": 19.114411, "longitude": 73.01444099999999}, "name": " Logicserve Digital Private Limited", "address": "B - 201 & B - 701"}, {"location": {"latitude": 12.8947305, "longitude": 77.5962277}, "name": " Condivision Solutions Private Limited", "address": "E-703 Adarsha Rhytham Apt Panduranga Nagar"}, {"location": {"latitude": 19.1113422, "longitude": 72.9083873}, "name": " Haygot Education Private Limited", "address": "A 204"}, {"location": {"latitude": 12.923447, "longitude": 77.64710199999999}, "name": " Canvera Digital Technologies Private Limited", "address": "# 531/144"}, {"location": {"latitude": 17.38909, "longitude": 78.49013300000001}, "name": " Grabonrent Internet Private Limited", "address": "22-6-66"}, {"location": {"latitude": 12.9049944, "longitude": 77.598687}, "name": " Neuroglia Health Private Limited", "address": "3RD FLOOR"}, {"location": {"latitude": 26.210086, "longitude": 78.200227}, "name": " Truckpapa E-Commerce Private Limited", "address": "A-2"}, {"location": {"latitude": 30.6871811, "longitude": 76.73831369999999}, "name": " Comparometer Services Private Limited", "address": "BOOTH 160"}, {"location": {"latitude": 12.9188696, "longitude": 77.6120607}, "name": " Wotu Technologies Private Limited", "address": "No. 83"}, {"location": {"latitude": 12.9939653, "longitude": 77.61464509999999}, "name": " Liquid Studios Private Limited", "address": "no. 4/1"}, {"location": {"latitude": 12.9363137, "longitude": 77.6286174}, "name": " Itw Sport Plus Private Limited", "address": "#16/1"}, {"location": {"latitude": 28.5594422, "longitude": 77.2708664}, "name": " Omnichanneler Technologies Private Limited", "address": "172"}, {"location": {"latitude": 18.5887148, "longitude": 73.8892851}, "name": " Mazkara Media Private Limited", "address": "D-8"}, {"location": {"latitude": 19.01509, "longitude": 72.825182}, "name": " Hopscotch Wholesale Trading Private Limited", "address": "1st floor"}, {"location": {"latitude": 19.1147912, "longitude": 72.8936779}, "name": " Appsdaily Solutions Private Limited", "address": "C Wing"}, {"location": {"latitude": 28.5674621, "longitude": 77.26913259999999}, "name": " Usekiwi Infolabs Private Limited", "address": "D-1012 NEW FRIENDS COLONY NEW DELHI South Delhi DL 110025 IN"}, {"location": {"latitude": 26.4819173, "longitude": 80.29011009999999}, "name": " Trident Analytical Solutions Private Limited", "address": "117/395"}, {"location": {"latitude": 12.9178996, "longitude": 77.5827588}, "name": " Cyclops Medtech Private Limited", "address": "No. 260"}, {"location": {"latitude": 30.7244293, "longitude": 76.7863979}, "name": " Angular Technologies Private Limited", "address": "693"}, {"location": {"latitude": 17.4248352, "longitude": 78.451928}, "name": " Paynear Solutions Private Limited", "address": "ABHINAV ENCLAVE6-3-347/C/1 DWARAKAPURI COLONY"}, {"location": {"latitude": -20.2481635, "longitude": 57.49303759999999}, "name": " HBM Private Equity India", "address": "4TH FLOOR TOWER A"}, {"location": {"latitude": 26.8692262, "longitude": 75.8080942}, "name": " Ntap Labs Private Limited", "address": "S.B.-ONE"}, {"location": {"latitude": 12.9631679, "longitude": 77.6583939}, "name": " Finbud Financial Services Private Limited", "address": "No.10"}, {"location": {"latitude": 18.4712372, "longitude": 73.8895127}, "name": "ServD Tech Private Limited", "address": "402"}, {"location": {"latitude": 19.1146704, "longitude": 72.89419459999999}, "name": " Gijutsu Solutions Private Limited", "address": "C-2098"}, {"location": {"latitude": 12.8994726, "longitude": 77.650643}, "name": " Teritree Technologies Private Limited", "address": "HOUSE NO.103"}, {"location": {"latitude": 23.038542, "longitude": 72.569847}, "name": " Alakmalak Technologies Private Limited", "address": "803"}, {"location": {"latitude": 28.5348708, "longitude": 77.2140826}, "name": " Cube26 Software Private Limited", "address": "B-103 SECOND FLOOR PANCHSHEEL VIHAR MALVIYA NAGAR NEW DELHI South Delhi DL 110017 IN"}, {"location": {"latitude": 28.4341423, "longitude": 77.1033309}, "name": " Digismart Digital Media Private Limited", "address": "Unit No. 301-306"}, {"location": {"latitude": 19.063343, "longitude": 72.860554}, "name": " Vistra Itcl (india) Limited", "address": "IL & FS FINANCIAL CENTREPLOT NO C22 G BLOCK BANDRA KURLA COMPLEX BANDRA EAST MUMBAI MH 400051 IN"}, {"location": {"latitude": 1.29976, "longitude": 103.8455131}, "name": " MacRitchie Investments Pte Ltd", "address": "60B ORCHARD ROAD #06-18 THE ATRIUM @ ORCHARD SINGAPORE 238891"}, {"location": {"latitude": 41.5057651, "longitude": -81.6903669}, "name": " Foundation Investments of Ohio Ltd", "address": "C/O PARKWOOD LLC"}, {"location": {"latitude": 28.6831066, "longitude": 77.1361725}, "name": " Outbox Ventures Private Limited", "address": "3208/2"}, {"location": {"latitude": 19.1782368, "longitude": 72.8340245}, "name": " Ah Ventures India Private Limited", "address": "B-402 "}, {"location": {"latitude": 28.5017294, "longitude": 77.2093493}, "name": " Futuresoft (india) Private Limited", "address": "160-A SAINIK FARMS KHANPUR NEW DELHI DL 110062 IN"}, {"location": {"latitude": 19.1301719, "longitude": 72.86840649999999}, "name": " Quidich Innovation Labs Private Limited", "address": "5A/1.TAKSHILA APPARTMENTS"}, {"location": {"latitude": -20.2424442, "longitude": 57.4884947}, "name": " Bravia Rent Alpha Holdings Limited", "address": "13TH FLOOR"}, {"location": {"latitude": 41.5057651, "longitude": -81.6903669}, "name": " Manbro P.E. IV LP", "address": "C/o Parkwood LLC"}, {"location": {"latitude": 28.5578477, "longitude": 77.16415769999999}, "name": " Waterbridge Ventures I", "address": "15-D"}, {"location": {"latitude": 12.9124507, "longitude": 77.6343342}, "name": " Tsepak Technologies Private Limited.", "address": "244"}, {"location": {"latitude": -20.1636209, "longitude": 57.5014035}, "name": " Unitus Seed Mauritius", "address": "LA CHAUSSEE STREET"}, {"location": {"latitude": 28.528602, "longitude": 77.219256}, "name": " Select Unicorn Llp", "address": "7TH FLOOR"}, {"location": {"latitude": 12.9373626, "longitude": 77.57180939999999}, "name": " Emvito Technologies Private Limited", "address": "NO 48"}, {"location": {"latitude": 28.448479, "longitude": 77.0758733}, "name": " Trucksfirst Services Private Limited", "address": "Plot No.90 Sector - 44 Gurgaon Gurgaon HR 122002 IN"}, {"location": {"latitude": 28.5583723, "longitude": 77.2387782}, "name": " Smile Multimedia Private Limited", "address": "D-119"}, {"location": {"latitude": 39.5240257, "longitude": -119.806015}, "name": " DriveU Investment Funds LLC", "address": "401 RYLAND ST STE 200-A"}, {"location": {"latitude": 12.9711618, "longitude": 77.64328549999999}, "name": " Pratithi Investment Trust", "address": "NO 805"}, {"location": {"latitude": 18.5156714, "longitude": 73.92634009999999}, "name": " Clarion Technologies Private Limited", "address": "4th Floor"}, {"location": {"latitude": -20.243199, "longitude": 57.496375}, "name": " Saama Capital Iii", "address": "4th Floor"}, {"location": {"latitude": 28.561802, "longitude": 77.192962}, "name": " Crudearea Web Private Limited", "address": "U8"}, {"location": {"latitude": 28.5779173, "longitude": 77.16936609999999}, "name": " Calabasas Ventures Private Limited", "address": "3/16"}, {"location": {"latitude": 18.9986521, "longitude": 72.8246439}, "name": " Alpex Corporate Services And Merchandising Private Limited", "address": "4th Floor"}, {"location": {"latitude": 19.1540536, "longitude": 72.8517076}, "name": " Project Automobiles (bombay) Private Limited", "address": "PLOT NO 4 LUCKY INDUSTRIALESTATE UDYOG NAGAR GOREGOAN MUMBAI MH 400062 IN"}, {"location": {"latitude": 12.9656906, "longitude": 77.6018338}, "name": " Unitus Seed Advisors Private Limited", "address": "#9/3"}, {"location": {"latitude": 18.9509621, "longitude": 72.83993939999999}, "name": " Bhoruka Capital Limited", "address": "G - Z ARIHANT BLDGAHMEDABAD STREET MASJID (EAST)"}, {"location": {"latitude": 1.2818847, "longitude": 103.8503034}, "name": " Sistema Asia Fund Pte Ltd", "address": "138 Market Street"}, {"location": {"latitude": 1.2756998, "longitude": 103.8458098}, "name": " ConveGenius Global Solutions Pte Ltd", "address": "10 Anson Road "}, {"location": {"latitude": 37.4236905, "longitude": -122.1120311}, "name": " Saama Capital Us Advisors", "address": "3786 Grove Avenue"}, {"location": {"latitude": 18.9248887, "longitude": 72.82316039999999}, "name": " Nazara Technologies Private Limited", "address": "51-57"}, {"location": {"latitude": 28.1966596, "longitude": 76.62364409999999}, "name": " Dinco Overseas", "address": "OPP HERO SHOWROOM"}, {"location": {"latitude": 19.0146316, "longitude": 72.8307076}, "name": " Mohan Three Wheelers Private Limited", "address": "SURAJ PRAKASH BLDG86 SHANKAR GHANEKAR MARG PRABHADEVI MUMBAI MH 400025 IN"}, {"location": {"latitude": 37.5142654, "longitude": -121.920225}, "name": " The Hedge Family Revocable Trust", "address": "10 STEVIE COURT"}, {"location": {"latitude": 19.1386684, "longitude": 72.8668471}, "name": " India Quotient Investment Trust", "address": "42"}, {"location": {"latitude": 12.9961833, "longitude": 77.55147}, "name": " Bro4U Online Services Private Limited", "address": "No 28"}, {"location": {"latitude": 28.4367159, "longitude": 77.108187}, "name": " Mconverge Ventures Llp", "address": "C 3-B PLOT NO. 49 SUNCITY SECTOR 54 GURGAON Gurgaon HR 122104 IN"}, {"location": {"latitude": 28.5597367, "longitude": 77.19900919999999}, "name": " Spank Management Services Private Limited", "address": "B-6/17"}, {"location": {"latitude": 13.0088794, "longitude": 77.5636371}, "name": " TRIPOD SOFTWARE SOLUTIONS PRIVATE LIMITED", "address": "NO.20"}, {"location": {"latitude": 12.8882473, "longitude": 77.5915824}, "name": " KITCHNZA FOODS AND HOSPITALITY PRIVATE LIMITED", "address": "No. 004"}, {"location": {"latitude": 28.567197, "longitude": 77.21610000000001}, "name": " Medhavi Professional Services Private Limited", "address": "D-25/C1"}, {"location": {"latitude": 28.729375, "longitude": 77.129114}, "name": " Rp2 Ventures Private Limited", "address": "C 3/35"}, {"location": {"latitude": 17.424497, "longitude": 78.451038}, "name": " Venkart Ecom Private Limited", "address": "PLOT NO.26"}, {"location": {"latitude": 12.9203309, "longitude": 77.68848179999999}, "name": " RETISENSE TECH INDIA PRIVATE LIMITED", "address": "#X902"}, {"location": {"latitude": -20.161876, "longitude": 57.50574899999999}, "name": " Better World Technology Holdings", "address": "C/O OCRA Limited level 2"}, {"location": {"latitude": 17.4076136, "longitude": 78.4402233}, "name": " Gar Financial Services Private Limited", "address": "LAXMI 8-2-682"}, {"location": {"latitude": 28.5415675, "longitude": 77.239773}, "name": " Kulzy Media Private Limited", "address": "E-98"}, {"location": {"latitude": 12.978889, "longitude": 77.6421699}, "name": " Xysec Labs Private Limited", "address": "473/1"}, {"location": {"latitude": 13.0558488, "longitude": 80.1151199}, "name": " EVEGETAILING PRIVATE LIMITED", "address": "NO. 92"}, {"location": {"latitude": 28.446088, "longitude": 77.043976}, "name": " NUVO LOGISTICS PRIVATE LIMITED", "address": "B-9 and 10"}, {"location": {"latitude": 19.1243882, "longitude": 72.8495982}, "name": " NEEV KNOWLEDGE MANAGEMENT PRIVATE LIMITED", "address": "702"}, {"location": {"latitude": -20.242499, "longitude": 57.49564899999999}, "name": " Canaan VIII Mauritius", "address": "IFS COURT TWENTYEIGHT"}, {"location": {"latitude": 28.627054, "longitude": 77.066531}, "name": " Sai Webtel Technologies Private Limited", "address": "AG-I/57B"}, {"location": {"latitude": -20.242499, "longitude": 57.49564899999999}, "name": " Epiphany Overseas Ventures", "address": "C/O INTERNATIONAL FINANCIAL SERVICES LIMITED"}, {"location": {"latitude": 28.5137542, "longitude": 77.158717}, "name": " Plus Capital Advisors Private Limited", "address": "10A"}, {"location": {"latitude": 28.6342746, "longitude": 77.3024215}, "name": " Healthstart India Private Limited", "address": "209"}, {"location": {"latitude": 11.9346773, "longitude": 79.8315755}, "name": " Marcatus Qed (india) Private Limited", "address": "58"}, {"location": {"latitude": 28.6696426, "longitude": 77.1439042}, "name": " Yukti Securities Private Limited", "address": "B-19 DEFENCE COLONY NEW DELHI DL 110024 IN"}, {"location": {"latitude": 28.5867954, "longitude": 77.336449}, "name": " QUSTN TECHNOLOGIES PRIVATE LIMITED", "address": "E 215"}, {"location": {"latitude": 19.146071, "longitude": 72.83593499999999}, "name": " Wsg Entertainment Llp", "address": "A/406"}, {"location": {"latitude": 23.0474959, "longitude": 72.5276844}, "name": " INTERACTCRM SOLUTIONS PRIVATE LIMITED", "address": "402"}, {"location": {"latitude": 12.9671505, "longitude": 77.60791189999999}, "name": " Relobridge Relocations Private Limited", "address": "17/21"}, {"location": {"latitude": 9.946067, "longitude": 76.3459058}, "name": " Konglo Ventures LLP", "address": "D2"}, {"location": {"latitude": 52.3477377, "longitude": 4.9205219}, "name": " Groupon Holdings B V", "address": "Prins"}, {"location": {"latitude": 28.7048867, "longitude": 77.1543404}, "name": " Orangut Labs Private Limited", "address": "FLAT NO. 62D"}, {"location": {"latitude": 41.8975185, "longitude": -87.64397799999999}, "name": " Groupon Inc.", "address": "600 W"}, {"location": {"latitude": 28.5321038, "longitude": 77.2445422}, "name": " VIPUL GOODSERVICE PRIVATE LIMITED", "address": "S-399 GREATER KAILASH-II NEW DELHI South Delhi DL 110048 IN"}, {"location": {"latitude": 28.5448319, "longitude": 77.3686907}, "name": " Instant Procurement Services Private Limited", "address": "FLAT- 1401"}, {"location": {"latitude": 12.9914357, "longitude": 77.7026972}, "name": " Discovery Info Labs Private Limited", "address": "C1803 Brigade Metropolis"}, {"location": {"latitude": 12.9214204, "longitude": 77.57101089999999}, "name": " Green Enabled It Solutions Private Limited", "address": "2/1"}, {"location": {"latitude": 12.9178207, "longitude": 77.6306298}, "name": " Protinus Fashion Networking Private Limited", "address": "365"}, {"location": {"latitude": 19.0173329, "longitude": 73.0385446}, "name": " Glentrans Shipping & Logistics (I) Private Limited", "address": "A-444"}, {"location": {"latitude": 28.5374511, "longitude": 77.2151643}, "name": " DIGITZ SERVICES PRIVATE LIMITED", "address": "M-70A FIRST FLOOR MALVIYA NAGAR DL 110017 IN"}, {"location": {"latitude": 12.9419278, "longitude": 77.5740864}, "name": " Apn Recruitment Solutions Private Limited", "address": "69/03"}, {"location": {"latitude": -20.1651285, "longitude": 57.5017119}, "name": " JS Capital (M) Limited", "address": "C/o. CIM Corporate Services Ltd. Edith Cavell Street"}, {"location": {"latitude": 19.1187711, "longitude": 72.9131582}, "name": " Aegis Care Advisors Private Limited", "address": "401"}, {"location": {"latitude": 28.5776725, "longitude": 77.085419}, "name": "929) Super Highway Labs Private Limited.", "address": "RZF-390"}, {"location": {"latitude": 1.2792508, "longitude": 103.8447681}, "name": "932) Nazara Pte Ltd", "address": "20 MAXWELL ROAD #09-17 MAXWELL HOUSE SINGAPORE 069113"}, {"location": {"latitude": 28.4384402, "longitude": 77.0631587}, "name": "Startup Buddy Services Private Limited", "address": "3011"}, {"location": {"latitude": 28.4580423, "longitude": 77.10824439999999}, "name": "Urbanjoy E Services Private Limited", "address": "PLOT NO-1 SECTOR-42"}, {"location": {"latitude": 18.9813547, "longitude": 72.8386015}, "name": "Jobbie Services India Private Limited", "address": "A-506"}, {"location": {"latitude": 28.5268416, "longitude": 77.1488759}, "name": "Just4Kids Services Private Limited", "address": "6129/1"}, {"location": {"latitude": 28.5481091, "longitude": 77.252055}, "name": "Printland Digital (India) Private Limited", "address": "G-9 Siddhartha Building"}, {"location": {"latitude": 19.0662653, "longitude": 72.88359489999999}, "name": "Pragmatix Services Private Limited", "address": "101"}, {"location": {"latitude": 18.961827, "longitude": 72.8018377}, "name": "Ignite Education Private Limited", "address": "20A Maheshwari Mansion 34 L Jagmohandas Marg"}, {"location": {"latitude": 13.0380012, "longitude": 80.160574}, "name": "Kobster E-Shop Private Limited", "address": "No 54/32 Mount Poonamallee Main Road St Thomas Mount Chennai Chennai TN 600016 IN"}, {"location": {"latitude": 18.5463286, "longitude": 73.903314}, "name": "Workapps Solutions Private Limited.", "address": "1st Floor"}, {"location": {"latitude": 28.538213, "longitude": 77.288562}, "name": "Mogli Labs (India) Private Limited", "address": "REGUS BUSINESS CENTRE (DELHI) PVT. LTD LEVEL-2"}, {"location": {"latitude": 13.0433089, "longitude": 80.2474222}, "name": "Eshakti.Com Private Limited", "address": "3rd Floor"}, {"location": {"latitude": 1.2792993, "longitude": 103.8498021}, "name": "Practo Pte. Ltd.", "address": "4 SHENTON WAY #15-01 SGX CENTRE II SINGAPORE 068807"}, {"location": {"latitude": 28.572164, "longitude": 77.26858299999999}, "name": "Betaout Technologies Private Limited", "address": "HOUSE NO. 37"}, {"location": {"latitude": 28.6331595, "longitude": 77.2226795}, "name": "Frame Techonology Marketing Services Private Limited", "address": "Barrack no. 17/1 Upper Anand Parbat New Delhi DL 110005 IN"}, {"location": {"latitude": 19.109978, "longitude": 72.8263551}, "name": "South Yarra Holdings", "address": "B 103"}, {"location": {"latitude": 28.5781487, "longitude": 77.1932399}, "name": "Sagacito Technologies Private Limited", "address": "W-129"}, {"location": {"latitude": 28.63938, "longitude": 77.208766}, "name": "Wedwise Events Private Limited", "address": "Office No.1"}, {"location": {"latitude": 12.9901463, "longitude": 80.24181449999999}, "name": "Airwood Aerostructures Private Limited", "address": "No.03 A2 Third Floor "}, {"location": {"latitude": 28.5421482, "longitude": 77.20528209999999}, "name": "Renomania India Private Limited", "address": "4/1"}, {"location": {"latitude": -20.2425071, "longitude": 57.4956465}, "name": "SCI Growth Investments II", "address": "IFS Court"}, {"location": {"latitude": 28.6446653, "longitude": 77.20340759999999}, "name": "Zobtree Ventures Private Limited", "address": "279 ANARKALI COMPLEX JHANDEWALAN EXTN NEW DELHI Central Delhi DL 110055 IN"}, {"location": {"latitude": 13.0089608, "longitude": 77.5657705}, "name": "Cimplyfive Corporate Secretarial Services Private Limited", "address": "NO. 42"}, {"location": {"latitude": 12.9692122, "longitude": 77.6412849}, "name": "Instavans Logistics Private Limited", "address": "No.307"}, {"location": {"latitude": 25.4456821, "longitude": 81.8689062}, "name": "Inweone Technologies Private Limited", "address": "160"}, {"location": {"latitude": 22.7275516, "longitude": 75.8834859}, "name": "Zootout Advertising Private Limited", "address": "304 KRISHNA HARMONY 14/2 NEW PALASIA INDORE MP 452001 IN"}, {"location": {"latitude": 13.387036, "longitude": 74.73759299999999}, "name": "Robosoft Technologies Private Limited", "address": "217"}, {"location": {"latitude": 26.8549447, "longitude": 75.8250475}, "name": "Next Door Learning Solutions Private Limited", "address": "OFFICE NO-322"}, {"location": {"latitude": 13.0033595, "longitude": 77.6196377}, "name": "Axilly Labs Private Limited", "address": "Flat No 002"}, {"location": {"latitude": 17.4401303, "longitude": 78.3985314}, "name": "Darwinbox Digital Solutions Private Limited", "address": "Plot No.17"}, {"location": {"latitude": 28.6410123, "longitude": 77.2460469}, "name": "Kromozones Software Private Limited", "address": "2690B"}, {"location": {"latitude": 28.585412, "longitude": 77.2434461}, "name": "Talentiser Private Limited", "address": "24/6 S/F PANT NAGAR"}, {"location": {"latitude": 12.9352429, "longitude": 77.6237055}, "name": "Futuron Systems Private Limited", "address": "2nd and 3rd floor"}, {"location": {"latitude": 28.557127, "longitude": 77.205283}, "name": "Goldvip Technology Solutions Private Limited", "address": "B9"}, {"location": {"latitude": 25.1848959, "longitude": 75.908221}, "name": "Innoplexus Consulting Services Private Limited", "address": "FLAT NO. A 2/901"}, {"location": {"latitude": 28.6554256, "longitude": 77.1219618}, "name": "Taxmann Education Private Limited", "address": "2/22"}, {"location": {"latitude": 13.0470133, "longitude": 80.26237270000001}, "name": "Cherrytin Online Private Limited", "address": "NO.14 "}, {"location": {"latitude": 39.7545377, "longitude": -75.62730599999999}, "name": "Vanguard International Growth Fund through Vanguard World Fund", "address": "2711 Centerville Rd"}, {"location": {"latitude": 28.7246973, "longitude": 77.1311382}, "name": "Casa2 Stays Private Limited", "address": "B-1/102"}, {"location": {"latitude": 28.652072, "longitude": 77.410178}, "name": "Jetstartus Technology Private Limited", "address": "Plot No M-20"}, {"location": {"latitude": 13.0131968, "longitude": 77.5762967}, "name": "Tricog Health Services Private Limited", "address": "94H"}, {"location": {"latitude": 19.116994, "longitude": 72.874544}, "name": "Nodd Ventures Private Limited", "address": "D/304"}, {"location": {"latitude": 18.5863132, "longitude": 73.73863779999999}, "name": "Orange Etokri India Private Limited", "address": "138/1 CITY CENTER HINJEWADI PUNE Pune MH 411057 IN"}, {"location": {"latitude": 28.6361113, "longitude": 77.29301}, "name": "M/S Share India Commodity Brokers (P) Limited", "address": "14"}, {"location": {"latitude": 18.9544302, "longitude": 72.80273319999999}, "name": " Rab Enterprises India Pvt Ltd", "address": "12-13/ D IL Palazzo Little"}, {"location": {"latitude": 12.9246477, "longitude": 77.6385854}, "name": " 63Ideas Infolabs Private Limited", "address": "Site No.9"}, {"location": {"latitude": 12.9213943, "longitude": 77.66495669999999}, "name": " Artoo It Solutions Private Limited", "address": "B-104"}, {"location": {"latitude": 12.9755594, "longitude": 77.6359786}, "name": " Knolskape Solutions Private Limited.", "address": "#1314"}, {"location": {"latitude": -20.2411651, "longitude": 57.496503}, "name": " Sequioa Capital India Investments Holdings III", "address": "5th floor"}, {"location": {"latitude": 28.5519236, "longitude": 77.26876419999999}, "name": " C.E. Info Systems Private Limited", "address": "68"}, {"location": {"latitude": 26.8993963, "longitude": 75.8267549}, "name": " Girnar Software Private Limited", "address": "GIRNAR 21"}, {"location": {"latitude": 19.076412, "longitude": 72.8649327}, "name": " Andromeda Sales And Distribution Private Limited", "address": "126"}, {"location": {"latitude": 38.8026097, "longitude": -116.419389}, "name": " Chargifi Inc", "address": "State of Nevada USA"}, {"location": {"latitude": 28.536472, "longitude": 77.223083}, "name": " Retention Nine Technologies Private Limited", "address": "90/31B"}, {"location": {"latitude": 53.3414328, "longitude": -1.2966629}, "name": " Chargifi Limited", "address": "England and Wales"}, {"location": {"latitude": 12.938922, "longitude": 77.609537}, "name": " Razorpay Software Private Limited", "address": "1st Floor"}, {"location": {"latitude": 12.9162975, "longitude": 77.58386159999999}, "name": " Catamaran Advisors Llp", "address": "No. 703"}, {"location": {"latitude": 12.9711857, "longitude": 77.6367389}, "name": " Hummingbill Technologies (India) Private Limited", "address": "39/1"}, {"location": {"latitude": 39.7545377, "longitude": -75.62730599999999}, "name": " Vanguard Variable Insurance Funds", "address": "2711 Centerville Rd"}, {"location": {"latitude": 13.0117806, "longitude": 80.2192298}, "name": " Veritas Finance Private Limited", "address": "S 15 2nd Floor Economist House"}, {"location": {"latitude": 26.9154346, "longitude": 75.8064996}, "name": " Winiin Taxscope Private Limited", "address": "203"}, {"location": {"latitude": 18.9959454, "longitude": 72.8158352}, "name": " Level Playingfield Private Limited", "address": "C 5-6 B-Wing"}, {"location": {"latitude": 12.9112223, "longitude": 77.6773217}, "name": " Interview Master Technology Solutions Private Limited", "address": "No. 818/1"}, {"location": {"latitude": 12.9121852, "longitude": 77.6355557}, "name": " Truweight Wellness Pvt.Ltd", "address": "No 18"}, {"location": {"latitude": 28.5454827, "longitude": 77.2259658}, "name": " Creative Living Solutions Private Limited", "address": "A 1/93"}, {"location": {"latitude": 17.448251, "longitude": 78.391823}, "name": " Wisdom It Services India Private Limited", "address": "PLOT NO.305"}, {"location": {"latitude": 28.7195155, "longitude": 77.1579531}, "name": " Eduposse Technologies Private Limited", "address": "AD-126-C DDA FLATS"}, {"location": {"latitude": 17.4554524, "longitude": 78.3027755}, "name": " Motiveprime Consumer Electronics Private Limited", "address": "102"}, {"location": {"latitude": 12.970823, "longitude": 77.6430443}, "name": " Zendrive Technologies India Private Limited", "address": "643"}, {"location": {"latitude": 28.534345, "longitude": 77.260414}, "name": " Grownout Solutions Private Limited", "address": "D-58"}, {"location": {"latitude": 12.940522, "longitude": 77.575711}, "name": " Hashcube Technologies Private Limited", "address": "SRI NARAYANA MANSIONS"}, {"location": {"latitude": 18.5522132, "longitude": 73.7704971}, "name": " Rolocule Games Private Limited", "address": "A904"}, {"location": {"latitude": 12.970226, "longitude": 77.628104}, "name": " Moonfrog Labs Private Limited", "address": "No. 16/3"}, {"location": {"latitude": 28.448479, "longitude": 77.0758733}, "name": " Balancehero India Private Limited", "address": "Office No-121"}, {"location": {"latitude": 28.617512, "longitude": 77.301524}, "name": " Epsilon Eduventures Private Limited", "address": "B-194 "}, {"location": {"latitude": 17.4284031, "longitude": 78.43266919999999}, "name": " Octathorpe Web-Consultants Private Limited", "address": "8-2-334/39 ROAD NO -3 BANJARAHILLS HYDERABAD TG 500034 IN"}, {"location": {"latitude": 19.0167972, "longitude": 72.8286997}, "name": " Gamiana Digital Entertainment Private Limited", "address": "321"}, {"location": {"latitude": 12.9280015, "longitude": 77.6362067}, "name": " Mm Sports Private Limited", "address": "House #45/1"}, {"location": {"latitude": 18.5260375, "longitude": 73.8296931}, "name": " Mastermind Sports And Accessories Private Limited", "address": "93-A"}, {"location": {"latitude": 12.9774279, "longitude": 80.1899469}, "name": " Identiti Design Private Limited", "address": "NO.7"}, {"location": {"latitude": 30.709058, "longitude": 76.77439749999999}, "name": " Edurev Solutions Private Limited", "address": "H. NO. 3608 SECTOR-32-D CHANDIGARH CH 160047 IN"}, {"location": {"latitude": 12.911723, "longitude": 77.6411207}, "name": " Dhruva Infotech Private Limited", "address": "No. 1276/90/K"}, {"location": {"latitude": 12.9146597, "longitude": 77.5989682}, "name": " Aryaka Networks India Private Limited", "address": "35/B"}, {"location": {"latitude": 28.6607628, "longitude": 77.26119849999999}, "name": " Pyxel Web Solutions Private Limited", "address": "X/3397"}, {"location": {"latitude": 28.621899, "longitude": 77.08783849999999}, "name": " Merchbay Products Private Limited", "address": "A-1/224 2nd Floor Janak Puri New Delhi New Delhi DL 110058 IN"}, {"location": {"latitude": 28.591386, "longitude": 77.0602633}, "name": " Leh Leh 7 Entertainment Solutions Private Limited", "address": "Flat No. 403"}, {"location": {"latitude": 28.6247328, "longitude": 77.4378929}, "name": " Winwin Rides Private Limited", "address": "A 003"}, {"location": {"latitude": 28.595426, "longitude": 77.048502}, "name": " Addodoc Technologies Private Limited", "address": "311"}, {"location": {"latitude": 22.6912165, "longitude": 75.83783729999999}, "name": " Positron Internet Services Private Limited", "address": "83-B VAISHALI NAGAR ANNAPURNA ROAD INDORE Indore MP 452009 IN"}, {"location": {"latitude": 25.4546551, "longitude": 81.7800639}, "name": " Boiban Business Private Limited", "address": "H. NO. 153"}, {"location": {"latitude": 17.428901, "longitude": 78.439679}, "name": " Globarena Technologies Private Limited", "address": "1 ST FLOOR"}, {"location": {"latitude": 19.139645, "longitude": 72.83413999999999}, "name": " Schoolwear Private Limited", "address": "304"}, {"location": {"latitude": 12.9445624, "longitude": 77.6249387}, "name": " Instano Technologies Private Limited", "address": "A2"}, {"location": {"latitude": 28.475552, "longitude": 77.1021025}, "name": " Sunterrace Energy Private Limited", "address": "C 8/5 GROUND FLOOR DLF PHASE-1 GURGAON Gurgaon HR 122001 IN"}, {"location": {"latitude": 19.1407985, "longitude": 72.8318376}, "name": " Indiaideas Com Limited", "address": "E-510 CRYSTAL PLAZANEW LINK ROAD ANDHERI (W) MUMBAI Mumbai City MH 400053 IN"}, {"location": {"latitude": 12.9420766, "longitude": 77.62191260000002}, "name": " Juspay Technologies Private Limited", "address": "3rd Floor"}, {"location": {"latitude": 28.526405, "longitude": 77.15551219999999}, "name": " Smsdaak India Limited", "address": "G-11/2 SANGAM VIHAR NEW DELHI South Delhi DL 110062 IN"}, {"location": {"latitude": 12.9062367, "longitude": 77.5957025}, "name": " Aujas Networks Private Limited", "address": "NO.595"}, {"location": {"latitude": 12.9344613, "longitude": 77.61342619999999}, "name": " Evibe Technologies Private Limited", "address": "No.238"}, {"location": {"latitude": 12.923358, "longitude": 77.6348862}, "name": " Yostra Labs Private Limited", "address": "NO. 200"}, {"location": {"latitude": 19.1129553, "longitude": 72.85464979999999}, "name": " Citrus Payment Solutions Private Limited", "address": "713 Sahar Plaza"}, {"location": {"latitude": 12.958565, "longitude": 77.640909}, "name": " Edreams Edusoft Private Limited", "address": "#270"}, {"location": {"latitude": 1.3181315, "longitude": 103.8428729}, "name": " InstaReM PTE limited", "address": "51 GOLDHILL PLAZA #07-10/11 SINGAPORE 308900"}, {"location": {"latitude": 28.5141683, "longitude": 77.170085}, "name": " D2C Consulting Services Private Limited", "address": "303"}, {"location": {"latitude": 12.8728909, "longitude": 77.4433796}, "name": " Localcube Commerce Private Limited", "address": "No.14-F-1"}, {"location": {"latitude": 18.9442199, "longitude": 72.8244189}, "name": " Ziqitza Health Care Limited", "address": "401-B NIRANJAN BLDG99 MARINE DRIVE MUMBAI MH 400002 IN"}, {"location": {"latitude": 12.9029476, "longitude": 77.6483356}, "name": " Simplilearn Solutions Private Limited", "address": "Manoj Arcade"}, {"location": {"latitude": 23.062791, "longitude": 72.55789229999999}, "name": " Almamapper Technologies Private Limited", "address": "1-2"}, {"location": {"latitude": 12.9145859, "longitude": 77.5610811}, "name": " Blue Book Bangalore Private Limited", "address": "No. 22"}, {"location": {"latitude": 12.9045937, "longitude": 77.5974686}, "name": " Nanolocal Technologies Private Limited", "address": "No.130"}, {"location": {"latitude": 18.5667229, "longitude": 73.7777555}, "name": " Inuxu Digital Media Technologies Private Limited", "address": "S. No. 123/1"}, {"location": {"latitude": 1.2777366, "longitude": 103.8476215}, "name": " Lathe Investment Private Limited", "address": "168"}, {"location": {"latitude": 51.5798926, "longitude": -0.3370447}, "name": " Pouring Pounds Ltd", "address": "Richmond Gatehouse Llp"}, {"location": {"latitude": 28.5968836, "longitude": 77.2960932}, "name": " DIAL PORT SOLUTION PRIVATE LIMITED", "address": "B-203"}, {"location": {"latitude": 12.8882473, "longitude": 77.5915824}, "name": " HIVELOOP TECHNOLOGY PRIVATE LIMITED", "address": "# A 2 - 1901"}, {"location": {"latitude": 18.9252996, "longitude": 72.82341869999999}, "name": " FOURTHEYE WEB TECHNOLOGIES PRIVATE LIMITED", "address": "122-A"}, {"location": {"latitude": 28.5476053, "longitude": 77.25241419999999}, "name": " ASANKHYA RETAIL PRIVATE LIMITED", "address": "703B"}, {"location": {"latitude": 28.6458728, "longitude": 77.1716658}, "name": " ALPINISMO ONLINE VENTURES PRIVATE LIMITED", "address": "7-E-2"}, {"location": {"latitude": 28.536297, "longitude": 77.27059299999999}, "name": " DESIGNBIDS TECHNOLOGIES PRIVATE LIMITED", "address": "E 43/1"}, {"location": {"latitude": 12.9700582, "longitude": 77.6749277}, "name": " ZWAYAM DIGITAL PRIVATE LIMITED", "address": "A-107 Ittina Abby Apartments"}, {"location": {"latitude": 28.6621239, "longitude": 77.31592959999999}, "name": " Dealmonk E-Services Private Limited", "address": "B-173 G/F YOJANA VIHAR DELHI East Delhi DL 110092 IN"}, {"location": {"latitude": 12.9855744, "longitude": 77.5958347}, "name": " HEYPILLOW TECHNOLOGY PRIVATE LIMITED", "address": "No. 33/01"}, {"location": {"latitude": 28.6312495, "longitude": 77.2784114}, "name": " MARA STUDIOS PRIVATE LIMITED", "address": "84"}, {"location": {"latitude": 26.8371857, "longitude": 75.83379099999999}, "name": " Girnarsoft Education Services Private Limited.", "address": "1st Floor"}, {"location": {"latitude": -20.242499, "longitude": 57.49564899999999}, "name": " Lightspeed venture partners IX Mauritius", "address": "International Financial Limited IFS Court"}, {"location": {"latitude": 12.9204754, "longitude": 77.63564579999999}, "name": " CHATPAY COMMERCE PRIVATE LIMITED", "address": "#148"}, {"location": {"latitude": 12.937119, "longitude": 77.629521}, "name": " EATLO TECH-SOLUTIONS PRIVATE LIMITED", "address": "KHYKHA ALCOVE No.10"}, {"location": {"latitude": 28.4655395, "longitude": 77.07914269999999},